{
  "type": "FeatureCollection",
  "generator": "overpass-turbo",
  "copyright": "The data included in this document is from www.openstreetmap.org. The data is made available under ODbL.",
  "timestamp": "2024-12-04T11:00:14Z",
  "features": [
    {
      "type": "Feature",
      "properties": {
        "@id": "node/26862457",
        "ele": "3513",
        "name": "Aiguille Centrale d'Arves",
        "natural": "peak",
        "prominence": "1433"
      },
      "geometry": {
        "type": "Point",
        "coordinates": [
          6.3364559,
          45.1272656
        ]
      },
      "id": "node/26862457"
    },
    {
      "type": "Feature",
      "properties": {
        "@id": "node/26862458",
        "ele": "3412",
        "name": "Aiguille de Chambeyron",
        "natural": "peak",
        "source": "data.gouv.fr:Le ministère des droits des femmes, de la ville, de la jeunesse et des sports - 2014",
        "sport": "climbing",
        "wikidata": "Q2827877",
        "wikipedia": "fr:Aiguille de Chambeyron"
      },
      "geometry": {
        "type": "Point",
        "coordinates": [
          6.8561426,
          44.5476021
        ]
      },
      "id": "node/26862458"
    },
    {
      "type": "Feature",
      "properties": {
        "@id": "node/26862459",
        "ele": "3747",
        "name": "Aiguille de la Grande Sassière",
        "name:fr": "Aiguille de la Grande Sassière",
        "name:it": "Aiguille de la Grande Sassière",
        "natural": "peak",
        "pdop": "1.33",
        "source": "survey",
        "wikidata": "Q2598084",
        "wikipedia": "it:Aiguille de la Grande Sassière"
      },
      "geometry": {
        "type": "Point",
        "coordinates": [
          6.9998427,
          45.5049956
        ]
      },
      "id": "node/26862459"
    },
    {
      "type": "Feature",
      "properties": {
        "@id": "node/26862460",
        "ele": "3561",
        "name": "Aiguille de Péclet",
        "natural": "peak",
        "wikidata": "Q1629061"
      },
      "geometry": {
        "type": "Point",
        "coordinates": [
          6.6240193,
          45.2813645
        ]
      },
      "id": "node/26862460"
    },
    {
      "type": "Feature",
      "properties": {
        "@id": "node/26862462",
        "ele": "4121",
        "name": "Aiguille Verte",
        "natural": "peak",
        "prominence": "690",
        "source:prominence": "4121-3431 (Col de l’Eboulement)",
        "wikidata": "Q30466",
        "wikipedia": "en:Aiguille Verte"
      },
      "geometry": {
        "type": "Point",
        "coordinates": [
          6.97006,
          45.9347326
        ]
      },
      "id": "node/26862462"
    },
    {
      "type": "Feature",
      "properties": {
        "@id": "node/26862530",
        "ele": "4102",
        "name": "Barre des Écrins",
        "natural": "peak",
        "prominence": "2044",
        "source:prominence": "4102-2058 ( Col du Lautaret)",
        "wikidata": "Q30480",
        "wikipedia": "fr:Barre des Écrins"
      },
      "geometry": {
        "type": "Point",
        "coordinates": [
          6.359547,
          44.92216
        ]
      },
      "id": "node/26862530"
    },
    {
      "type": "Feature",
      "properties": {
        "@id": "node/26862630",
        "ele": "3340",
        "name": "Bric de Rubren / Cima Mongioia",
        "name:fr": "Bric de Rubren",
        "name:it": "Cima Mongioia",
        "natural": "peak",
        "ref:refuges.info": "1679",
        "wikidata": "Q2925072",
        "wikipedia": "it:Cima Mongioia"
      },
      "geometry": {
        "type": "Point",
        "coordinates": [
          6.9496597,
          44.6195969
        ]
      },
      "id": "node/26862630"
    },
    {
      "type": "Feature",
      "properties": {
        "@id": "node/26863008",
        "alt_name": "Gran Bachimala",
        "alt_name:es": "Gran Bachimala",
        "alt_name:fr": "Grand Batchimale",
        "ele": "3177",
        "name": "Bachimala / Schrader",
        "name:an": "Punta de Bachimala",
        "name:es": "Bachimala",
        "name:eu": "Bachimala / Schrader",
        "name:fr": "Schrader",
        "natural": "peak",
        "note": "name multilingue car situé sur la frontière franco-espagole",
        "prominence": "564",
        "source:prominence": "3177-2613 (Puerto de Clarabide)",
        "wikidata": "Q2092038",
        "wikipedia": "fr:Pic Schrader"
      },
      "geometry": {
        "type": "Point",
        "coordinates": [
          0.3944255,
          42.6985978
        ]
      },
      "id": "node/26863008"
    },
    {
      "type": "Feature",
      "properties": {
        "@id": "node/26863017",
        "ele": "3587",
        "name": "Grand Roc Noir",
        "natural": "peak",
        "wikidata": "Q1748581"
      },
      "geometry": {
        "type": "Point",
        "coordinates": [
          6.8919412,
          45.3302786
        ]
      },
      "id": "node/26863017"
    },
    {
      "type": "Feature",
      "properties": {
        "@id": "node/26863024",
        "ele": "4208",
        "name": "Grandes Jorasses / Pointe Walker",
        "natural": "peak",
        "prominence": "848",
        "source:prominence": "4208-3360 (Col du Géant)",
        "wikidata": "Q2403858",
        "wikipedia": "it:Punta Walker"
      },
      "geometry": {
        "type": "Point",
        "coordinates": [
          6.9889831,
          45.8681562
        ]
      },
      "id": "node/26863024"
    },
    {
      "type": "Feature",
      "properties": {
        "@id": "node/26863470",
        "ele": "3953",
        "name": "L'Ailefroide Occidentale",
        "natural": "peak"
      },
      "geometry": {
        "type": "Point",
        "coordinates": [
          6.3559521,
          44.884701
        ]
      },
      "id": "node/26863470"
    },
    {
      "type": "Feature",
      "properties": {
        "@id": "node/26863476",
        "ele": "3855",
        "name": "La Grande Casse",
        "natural": "peak",
        "prominence": "1305",
        "wikidata": "Q1542960"
      },
      "geometry": {
        "type": "Point",
        "coordinates": [
          6.8275635,
          45.4051415
        ]
      },
      "id": "node/26863476"
    },
    {
      "type": "Feature",
      "properties": {
        "@id": "node/26863479",
        "ele": "3982",
        "name": "Grand Pic de la Meije",
        "natural": "peak",
        "note": "Pic Occidental de la Meije",
        "wikidata": "Q1605356",
        "wikipedia": "fr:La Meije"
      },
      "geometry": {
        "type": "Point",
        "coordinates": [
          6.3082538,
          45.005036
        ]
      },
      "id": "node/26863479"
    },
    {
      "type": "Feature",
      "properties": {
        "@id": "node/26863521",
        "ele": "3048",
        "name": "Le Grand Bérard",
        "natural": "peak",
        "wikidata": "Q3113537"
      },
      "geometry": {
        "type": "Point",
        "coordinates": [
          6.6602736,
          44.4497277
        ]
      },
      "id": "node/26863521"
    },
    {
      "type": "Feature",
      "properties": {
        "@id": "node/26863522",
        "ele": "3228",
        "name": "Le Grand Galibier",
        "natural": "peak",
        "wikidata": "Q1407209"
      },
      "geometry": {
        "type": "Point",
        "coordinates": [
          6.4341494,
          45.063891
        ]
      },
      "id": "node/26863522"
    },
    {
      "type": "Feature",
      "properties": {
        "@id": "node/26863717",
        "alt_name": "Mont-Blanc des Dames",
        "ele": "3096",
        "name": "Mont Buet",
        "natural": "peak",
        "wikidata": "Q3321720",
        "wikipedia": "fr:Mont Buet"
      },
      "geometry": {
        "type": "Point",
        "coordinates": [
          6.8525295,
          46.0248299
        ]
      },
      "id": "node/26863717"
    },
    {
      "type": "Feature",
      "properties": {
        "@id": "node/26863728",
        "ele": "3143",
        "name": "Cime du Gélas / Monte Gelàs",
        "name:fr": "Cime du Gélas",
        "name:it": "Monte Gelàs",
        "natural": "peak",
        "ref:refuges.info": "5893",
        "wikidata": "Q2401467",
        "wikipedia": "it:Monte Gelàs"
      },
      "geometry": {
        "type": "Point",
        "coordinates": [
          7.3842062,
          44.1227794
        ]
      },
      "id": "node/26863728"
    },
    {
      "type": "Feature",
      "properties": {
        "@id": "node/26863730",
        "alt_name": "Mont Ciusalet",
        "ele": "3313",
        "name": "Mont Giusalet",
        "name:frp": "Lou Tsùsaleut",
        "name:it": "Monte Giusalet",
        "natural": "peak",
        "summit:cross": "yes",
        "wikidata": "Q3861593",
        "wikipedia": "fr:Mont Giusalet"
      },
      "geometry": {
        "type": "Point",
        "coordinates": [
          6.93,
          45.1805556
        ]
      },
      "id": "node/26863730"
    },
    {
      "type": "Feature",
      "properties": {
        "@id": "node/26863741",
        "ele": "3050",
        "name": "Mont Pelat",
        "natural": "peak",
        "wikidata": "Q1758304",
        "wikipedia": "fr:Mont Pelat"
      },
      "geometry": {
        "type": "Point",
        "coordinates": [
          6.7058837,
          44.2650103
        ]
      },
      "id": "node/26863741"
    },
    {
      "type": "Feature",
      "properties": {
        "@id": "node/26864239",
        "ele": "3320",
        "name": "Pic de Rochebrune",
        "natural": "peak",
        "prominence": "1019",
        "wikidata": "Q1157013"
      },
      "geometry": {
        "type": "Point",
        "coordinates": [
          6.7875068,
          44.8222932
        ]
      },
      "id": "node/26864239"
    },
    {
      "type": "Feature",
      "properties": {
        "@id": "node/26864248",
        "ele": "3192",
        "name": "Pic Long",
        "natural": "peak",
        "prominence": "732",
        "source:prominence": "3192-2460 (Puerto Nuevo de Pineta)",
        "wikidata": "Q3141369",
        "wikipedia": "en:Pic Long"
      },
      "geometry": {
        "type": "Point",
        "coordinates": [
          0.1001273,
          42.8008266
        ]
      },
      "id": "node/26864248"
    },
    {
      "type": "Feature",
      "properties": {
        "@id": "node/26864249",
        "ele": "3155",
        "name": "Pic Ouest de Combeynot",
        "natural": "peak",
        "wikidata": "Q31655581"
      },
      "geometry": {
        "type": "Point",
        "coordinates": [
          6.4111137,
          45.01258
        ]
      },
      "id": "node/26864249"
    },
    {
      "type": "Feature",
      "properties": {
        "@id": "node/26864258",
        "ele": "3143.45",
        "name": "Pica d'Estats",
        "name:ca": "Pica d'Estats",
        "name:es": "Pica d'Estats",
        "name:fr": "Pique d'Estats",
        "natural": "peak",
        "prominence": "1264",
        "source": "Institut Cartogràfic de Catalunya",
        "source:date": "2010",
        "source:prominence": "3143-1879 (Pla de Beret)",
        "summit:cross": "yes",
        "url:source": "ftp://geofons.icc.cat/fitxes/100CIMS/271064006.pdf",
        "wikidata": "Q1537733",
        "wikipedia": "es:Pica d'Estats",
        "wikipedia:ca": "Pica d'Estats",
        "wikipedia:fr": "Pique d'Estats"
      },
      "geometry": {
        "type": "Point",
        "coordinates": [
          1.3978986,
          42.666952
        ]
      },
      "id": "node/26864258"
    },
    {
      "type": "Feature",
      "properties": {
        "@id": "node/26864270",
        "ele": "3385",
        "name": "Pics de la Font Sancte",
        "natural": "peak",
        "wikidata": "Q3382555"
      },
      "geometry": {
        "type": "Point",
        "coordinates": [
          6.7995823,
          44.6045737
        ]
      },
      "id": "node/26864270"
    },
    {
      "type": "Feature",
      "properties": {
        "@id": "node/26864342",
        "created_by": "Potlatch 0.10f",
        "ele": "3307",
        "name": "Pointe de l'Aiglière",
        "natural": "peak"
      },
      "geometry": {
        "type": "Point",
        "coordinates": [
          6.4147136,
          44.8102815
        ]
      },
      "id": "node/26864342"
    },
    {
      "type": "Feature",
      "properties": {
        "@id": "node/26864344",
        "ele": "3049",
        "name": "Pointe de Malhaubert",
        "natural": "peak"
      },
      "geometry": {
        "type": "Point",
        "coordinates": [
          6.0325843,
          44.975271
        ]
      },
      "id": "node/26864344"
    },
    {
      "type": "Feature",
      "properties": {
        "@id": "node/26864460",
        "ele": "3222",
        "name": "Rocca Bernauda / Roche Bernaude",
        "name:fr": "Roche Bernaude",
        "name:it": "Rocca Bernauda",
        "natural": "peak",
        "wikidata": "Q1154029",
        "wikipedia": "fr:Roche Bernaude"
      },
      "geometry": {
        "type": "Point",
        "coordinates": [
          6.6274936,
          45.1013915
        ]
      },
      "id": "node/26864460"
    },
    {
      "type": "Feature",
      "properties": {
        "@id": "node/26864647",
        "alt_name": "Punta Clairy",
        "ele": "3163",
        "name": "Signal du Petit Mont Cenis",
        "natural": "peak",
        "wikidata": "Q3925658"
      },
      "geometry": {
        "type": "Point",
        "coordinates": [
          6.8727681,
          45.2442786
        ]
      },
      "id": "node/26864647"
    },
    {
      "type": "Feature",
      "properties": {
        "@id": "node/26864746",
        "ele": "3417",
        "name": "Sommet de Bellecôte",
        "natural": "peak",
        "wikidata": "Q949343"
      },
      "geometry": {
        "type": "Point",
        "coordinates": [
          6.7824968,
          45.4925008
        ]
      },
      "id": "node/26864746"
    },
    {
      "type": "Feature",
      "properties": {
        "@id": "node/26864913",
        "created_by": "Potlatch 0.10f",
        "ele": "3089",
        "name": "Tête de la Courbe",
        "natural": "peak"
      },
      "geometry": {
        "type": "Point",
        "coordinates": [
          6.823884,
          44.4980593
        ]
      },
      "id": "node/26864913"
    },
    {
      "type": "Feature",
      "properties": {
        "@id": "node/45193909",
        "ele": "3004.3",
        "name": "Pic Rodó de Canalbona",
        "name:ca": "Pic Rodó de Canalbona",
        "natural": "peak",
        "source": "Institut Cartogràfic de Catalunya",
        "wikidata": "Q7357513",
        "wikipedia": "ca:Rodó de Canalbona"
      },
      "geometry": {
        "type": "Point",
        "coordinates": [
          1.4016988,
          42.6625832
        ]
      },
      "id": "node/45193909"
    },
    {
      "type": "Feature",
      "properties": {
        "@id": "node/45194103",
        "ele": "3072",
        "name": "Pic de Sotllo",
        "name:ca": "Pic de Sotllo",
        "name:fr": "Pic du Port de Sullo",
        "natural": "peak",
        "prominence": "198",
        "source": "Institut Cartogràfic de Catalunya",
        "source:prominence": "ICGC map. Key col: Port de Sotllo 2874m",
        "url:source": "ftp://geofons.icc.cat/fitxes/100CIMS/270064006.pdf",
        "wikidata": "Q3087278",
        "wikipedia": "es:Pico de Sotllo"
      },
      "geometry": {
        "type": "Point",
        "coordinates": [
          1.3874561,
          42.6687125
        ]
      },
      "id": "node/45194103"
    },
    {
      "type": "Feature",
      "properties": {
        "@id": "node/45197008",
        "ele": "3025",
        "name": "Punta de l'Abella",
        "name:an": "Punta de l'Abella",
        "name:ca": "Pic de l'Abeillé",
        "natural": "peak",
        "wikidata": "Q11903838"
      },
      "geometry": {
        "type": "Point",
        "coordinates": [
          0.3928154,
          42.7132443
        ]
      },
      "id": "node/45197008"
    },
    {
      "type": "Feature",
      "properties": {
        "@id": "node/61752967",
        "ele": "3809",
        "name": "Le Râteau - Pic Est",
        "natural": "peak"
      },
      "geometry": {
        "type": "Point",
        "coordinates": [
          6.2829415,
          45.0008085
        ]
      },
      "id": "node/61752967"
    },
    {
      "type": "Feature",
      "properties": {
        "@id": "node/167075493",
        "ele": "3842",
        "name": "Aiguille du Midi",
        "natural": "peak",
        "wikidata": "Q404728",
        "wikipedia": "en:Aiguille du Midi"
      },
      "geometry": {
        "type": "Point",
        "coordinates": [
          6.8875506,
          45.8787035
        ]
      },
      "id": "node/167075493"
    },
    {
      "type": "Feature",
      "properties": {
        "@id": "node/253727447",
        "ele": "3323",
        "name": "Pic Blanc",
        "natural": "peak",
        "short_name": "Pic Blanc",
        "wikidata": "Q31641308"
      },
      "geometry": {
        "type": "Point",
        "coordinates": [
          6.1276239,
          45.1251943
        ]
      },
      "id": "node/253727447"
    },
    {
      "type": "Feature",
      "properties": {
        "@id": "node/279452741",
        "ele": "4015",
        "name": "Dôme de Neige des Écrins",
        "natural": "peak",
        "wikidata": "Q2551474"
      },
      "geometry": {
        "type": "Point",
        "coordinates": [
          6.3535413,
          44.9243102
        ]
      },
      "id": "node/279452741"
    },
    {
      "type": "Feature",
      "properties": {
        "@id": "node/279799820",
        "ele": "3131",
        "name": "Le Rateau d'Aussois",
        "natural": "peak",
        "wikidata": "Q16672212"
      },
      "geometry": {
        "type": "Point",
        "coordinates": [
          6.6938877,
          45.2463525
        ]
      },
      "id": "node/279799820"
    },
    {
      "type": "Feature",
      "properties": {
        "@id": "node/279799941",
        "ele": "3015",
        "name": "Pointe de l'Observatoire",
        "natural": "peak",
        "wikidata": "Q31635723"
      },
      "geometry": {
        "type": "Point",
        "coordinates": [
          6.6851397,
          45.2908908
        ]
      },
      "id": "node/279799941"
    },
    {
      "type": "Feature",
      "properties": {
        "@id": "node/281399025",
        "direction": "0-360",
        "dispute:wikipedia": "fr:Histoire de la frontière sur le mont Blanc",
        "ele": "4805.59",
        "importance": "international",
        "isolation": "2812",
        "name": "Mont Blanc / Monte Bianco",
        "name:be": "Манблан",
        "name:cs": "Mont Blanc",
        "name:es": "Mont Blanc",
        "name:fr": "Mont Blanc",
        "name:he": "מון בלאן",
        "name:hu": "Mont Blanc",
        "name:it": "Monte Bianco",
        "name:ja": "モンブラン",
        "name:lt": "Monblanas",
        "name:ru": "Монблан",
        "name:tt": "Монблан",
        "name:uk": "Монблан",
        "name:zh": "勃朗峰",
        "natural": "peak",
        "note": "Ownership of the summit and dispute https://en.wikipedia.org/wiki/Mont_Blanc",
        "prominence": "4695",
        "source": "cadastre-dgi-fr source : Direction Générale des Impôts - Cadastre. Mise à jour : 2009",
        "source:ele": "IGN measurements 2015",
        "source:prominence": "4808-113 (Lake Beloye)",
        "summit:cross": "no",
        "tourism": "viewpoint",
        "wheelchair": "no",
        "wikidata": "Q583",
        "wikipedia": "fr:Mont Blanc"
      },
      "geometry": {
        "type": "Point",
        "coordinates": [
          6.8650773,
          45.8327682
        ]
      },
      "id": "node/281399025"
    },
    {
      "type": "Feature",
      "properties": {
        "@id": "node/289834693",
        "ele": "3032",
        "name": "Pointe des Sagnes Longues",
        "natural": "peak",
        "wikidata": "Q31631216"
      },
      "geometry": {
        "type": "Point",
        "coordinates": [
          6.9464662,
          44.6873705
        ]
      },
      "id": "node/289834693"
    },
    {
      "type": "Feature",
      "properties": {
        "@id": "node/290497885",
        "ele": "3542",
        "name": "Aiguille du Tour",
        "natural": "peak",
        "wikidata": "Q404720"
      },
      "geometry": {
        "type": "Point",
        "coordinates": [
          7.0100128,
          45.9945308
        ]
      },
      "id": "node/290497885"
    },
    {
      "type": "Feature",
      "properties": {
        "@id": "node/290497888",
        "ele": "3478",
        "name": "Aiguille Purtscheller",
        "natural": "peak",
        "wikidata": "Q22371076"
      },
      "geometry": {
        "type": "Point",
        "coordinates": [
          7.012105,
          45.9914303
        ]
      },
      "id": "node/290497888"
    },
    {
      "type": "Feature",
      "properties": {
        "@id": "node/290497892",
        "ele": "3824",
        "name": "Aiguille de Chardonnet",
        "natural": "peak",
        "wikidata": "Q404697",
        "wikipedia": "fr:Aiguille du Chardonnet"
      },
      "geometry": {
        "type": "Point",
        "coordinates": [
          7.0015516,
          45.968306
        ]
      },
      "id": "node/290497892"
    },
    {
      "type": "Feature",
      "properties": {
        "@id": "node/290497894",
        "ele": "3901",
        "name": "Aiguille d'Argentière",
        "natural": "peak",
        "wikidata": "Q404738",
        "wikipedia": "en:Aiguille d'Argentière"
      },
      "geometry": {
        "type": "Point",
        "coordinates": [
          7.0199726,
          45.9595589
        ]
      },
      "id": "node/290497894"
    },
    {
      "type": "Feature",
      "properties": {
        "@id": "node/307195492",
        "ele": "4045",
        "name": "Pointe Hélène / Punta Elena",
        "name:fr": "Pointe Hélène",
        "name:it": "Punta Elena",
        "natural": "peak",
        "wikidata": "Q3925668",
        "wikipedia": "it:Punta Elena"
      },
      "geometry": {
        "type": "Point",
        "coordinates": [
          6.9793403,
          45.8687569
        ]
      },
      "id": "node/307195492"
    },
    {
      "type": "Feature",
      "properties": {
        "@id": "node/307195496",
        "ele": "4110",
        "name": "Pointe Croz / Punta Croz",
        "name:fr": "Pointe Croz",
        "name:it": "Punta Croz",
        "natural": "peak",
        "wikidata": "Q1995374",
        "wikipedia": "it:Punta Croz"
      },
      "geometry": {
        "type": "Point",
        "coordinates": [
          6.9821345,
          45.8692394
        ]
      },
      "id": "node/307195496"
    },
    {
      "type": "Feature",
      "properties": {
        "@id": "node/307195579",
        "ele": "3730",
        "name": "Aiguille de Talèfre",
        "name:fr": "Aiguille de Talèfre",
        "name:it": "Aiguille de Talèfre",
        "natural": "peak",
        "wikidata": "Q1578316",
        "wikipedia": "it:Aiguille de Talèfre"
      },
      "geometry": {
        "type": "Point",
        "coordinates": [
          7.0037821,
          45.899499
        ]
      },
      "id": "node/307195579"
    },
    {
      "type": "Feature",
      "properties": {
        "@id": "node/307195602",
        "ele": "3648",
        "name": "Pointe du Domino / Punta del Domino",
        "name:fr": "Pointe du Domino",
        "name:it": "Punta del Domino",
        "natural": "peak",
        "wikidata": "Q31612094"
      },
      "geometry": {
        "type": "Point",
        "coordinates": [
          7.0310586,
          45.9206211
        ]
      },
      "id": "node/307195602"
    },
    {
      "type": "Feature",
      "properties": {
        "@id": "node/307676211",
        "ele": "3815",
        "name": "Aiguille des Glaciers",
        "name:fr": "Aiguille des Glaciers",
        "name:it": "Aiguille des Glaciers",
        "natural": "peak",
        "wikidata": "Q1705506",
        "wikipedia": "it:Aiguille des Glaciers"
      },
      "geometry": {
        "type": "Point",
        "coordinates": [
          6.802571,
          45.7783901
        ]
      },
      "id": "node/307676211"
    },
    {
      "type": "Feature",
      "properties": {
        "@id": "node/324232145",
        "ele": "3195",
        "name": "Cime de Caron",
        "natural": "peak",
        "wikidata": "Q2972416"
      },
      "geometry": {
        "type": "Point",
        "coordinates": [
          6.5609518,
          45.2632226
        ]
      },
      "id": "node/324232145"
    },
    {
      "type": "Feature",
      "properties": {
        "@id": "node/340235998",
        "ele": "4001",
        "name": "Aiguille de Rochefort",
        "natural": "peak",
        "source": "Yahoo",
        "wikidata": "Q404672",
        "wikipedia": "it:Aiguille de Rochefort"
      },
      "geometry": {
        "type": "Point",
        "coordinates": [
          6.9599716,
          45.8621023
        ]
      },
      "id": "node/340235998"
    },
    {
      "type": "Feature",
      "properties": {
        "@id": "node/344715573",
        "ele": "4248",
        "name": "Mont Blanc du Tacul",
        "natural": "peak",
        "wikidata": "Q30438",
        "wikipedia": "en:Mont Blanc du Tacul"
      },
      "geometry": {
        "type": "Point",
        "coordinates": [
          6.8885201,
          45.8565863
        ]
      },
      "id": "node/344715573"
    },
    {
      "type": "Feature",
      "properties": {
        "@id": "node/344715578",
        "ele": "3673",
        "name": "Aiguille du Plan",
        "natural": "peak",
        "wikidata": "Q2569448",
        "wikipedia": "en:Aiguille du Plan"
      },
      "geometry": {
        "type": "Point",
        "coordinates": [
          6.9064682,
          45.8913485
        ]
      },
      "id": "node/344715578"
    },
    {
      "type": "Feature",
      "properties": {
        "@id": "node/344715579",
        "ele": "3522",
        "name": "Aiguille de Blaitière",
        "natural": "peak",
        "wikidata": "Q404669",
        "wikipedia": "en:Aiguille de Blaitière"
      },
      "geometry": {
        "type": "Point",
        "coordinates": [
          6.9133265,
          45.8989201
        ]
      },
      "id": "node/344715579"
    },
    {
      "type": "Feature",
      "properties": {
        "@id": "node/344715583",
        "ele": "3754",
        "name": "Grand Dru",
        "natural": "peak"
      },
      "geometry": {
        "type": "Point",
        "coordinates": [
          6.9561711,
          45.9319514
        ]
      },
      "id": "node/344715583"
    },
    {
      "type": "Feature",
      "properties": {
        "@id": "node/344715584",
        "ele": "4000",
        "name": "Les Droites",
        "natural": "peak",
        "wikidata": "Q30549",
        "wikipedia": "en:Les Droites"
      },
      "geometry": {
        "type": "Point",
        "coordinates": [
          6.9893056,
          45.9306841
        ]
      },
      "id": "node/344715584"
    },
    {
      "type": "Feature",
      "properties": {
        "@id": "node/344715662",
        "ele": "3444",
        "name": "Aiguille du Tacul",
        "natural": "peak",
        "wikidata": "Q3607103",
        "wikipedia": "fr:Aiguille du Tacul"
      },
      "geometry": {
        "type": "Point",
        "coordinates": [
          6.9607788,
          45.884347
        ]
      },
      "id": "node/344715662"
    },
    {
      "type": "Feature",
      "properties": {
        "@id": "node/345606693",
        "ele": "3417",
        "name": "Grande Aiguille de la Bérarde",
        "natural": "peak",
        "wikidata": "Q2390157"
      },
      "geometry": {
        "type": "Point",
        "coordinates": [
          6.2780427,
          44.9168928
        ]
      },
      "id": "node/345606693"
    },
    {
      "type": "Feature",
      "properties": {
        "@id": "node/345606720",
        "ele": "3563",
        "name": "Tête de l'Étret",
        "natural": "peak",
        "wikidata": "Q3546941"
      },
      "geometry": {
        "type": "Point",
        "coordinates": [
          6.2449979,
          44.8897033
        ]
      },
      "id": "node/345606720"
    },
    {
      "type": "Feature",
      "properties": {
        "@id": "node/345606723",
        "ele": "3564",
        "name": "Pointe du Vallon des Etages",
        "natural": "peak",
        "wikidata": "Q3393733"
      },
      "geometry": {
        "type": "Point",
        "coordinates": [
          6.2671851,
          44.8848152
        ]
      },
      "id": "node/345606723"
    },
    {
      "type": "Feature",
      "properties": {
        "@id": "node/345609926",
        "ele": "3563",
        "name": "Le Plaret",
        "natural": "peak",
        "wikidata": "Q3225671"
      },
      "geometry": {
        "type": "Point",
        "coordinates": [
          6.2592473,
          44.9684719
        ]
      },
      "id": "node/345609926"
    },
    {
      "type": "Feature",
      "properties": {
        "@id": "node/345609932",
        "ele": "3932",
        "name": "Mont Pelvoux Pointe Durand",
        "natural": "peak"
      },
      "geometry": {
        "type": "Point",
        "coordinates": [
          6.4007544,
          44.8987086
        ]
      },
      "id": "node/345609932"
    },
    {
      "type": "Feature",
      "properties": {
        "@id": "node/345609936",
        "ele": "3943",
        "name": "Mont Pelvoux Pointe Puiseux",
        "natural": "peak"
      },
      "geometry": {
        "type": "Point",
        "coordinates": [
          6.3959542,
          44.8972813
        ]
      },
      "id": "node/345609936"
    },
    {
      "type": "Feature",
      "properties": {
        "@id": "node/345609942",
        "ele": "3753",
        "name": "Petit Pelvoux",
        "natural": "peak",
        "wikidata": "Q31394352"
      },
      "geometry": {
        "type": "Point",
        "coordinates": [
          6.4093996,
          44.8944244
        ]
      },
      "id": "node/345609942"
    },
    {
      "type": "Feature",
      "properties": {
        "@id": "node/345610171",
        "ele": "3697",
        "name": "Pic Bourcet",
        "natural": "peak",
        "wikidata": "Q31394371"
      },
      "geometry": {
        "type": "Point",
        "coordinates": [
          6.3230041,
          44.962013
        ]
      },
      "id": "node/345610171"
    },
    {
      "type": "Feature",
      "properties": {
        "@id": "node/349277854",
        "ele": "3316",
        "name": "Grand Roc",
        "natural": "peak",
        "source": "GPS",
        "wikidata": "Q3114559"
      },
      "geometry": {
        "type": "Point",
        "coordinates": [
          6.6882491,
          45.265387
        ]
      },
      "id": "node/349277854"
    },
    {
      "type": "Feature",
      "properties": {
        "@id": "node/366015890",
        "ele": "3192",
        "name": "Mont Tondu",
        "natural": "peak",
        "note": "extrapolation d'après le schéma du site géodésique",
        "source": "cadastre-dgi-fr source : Direction Générale des Impôts - Cadastre. Mise à jour : 2008",
        "wikidata": "Q1323168",
        "wikipedia": "fr:Mont Tondu"
      },
      "geometry": {
        "type": "Point",
        "coordinates": [
          6.7553564,
          45.7635198
        ]
      },
      "id": "node/366015890"
    },
    {
      "type": "Feature",
      "properties": {
        "@id": "node/366260714",
        "ele": "4052",
        "name": "Aiguille de Bionnassay",
        "name:fr": "Aiguille de Bionnassay",
        "name:it": "Aiguille de Bionnassay",
        "natural": "peak",
        "source": "Carta Tecnica Regione VDA",
        "wikidata": "Q30493",
        "wikimedia_commons": "Category:Aiguille de Bionnassay",
        "wikipedia": "it:Aiguille de Bionnassay"
      },
      "geometry": {
        "type": "Point",
        "coordinates": [
          6.8186739,
          45.836054
        ]
      },
      "id": "node/366260714"
    },
    {
      "type": "Feature",
      "properties": {
        "@id": "node/367945274",
        "ele": "3445",
        "name": "Aiguille des Grands Charmoz",
        "natural": "peak",
        "wikidata": "Q404688",
        "wikipedia": "en:Aiguille des Grands Charmoz"
      },
      "geometry": {
        "type": "Point",
        "coordinates": [
          6.9188413,
          45.9042308
        ]
      },
      "id": "node/367945274"
    },
    {
      "type": "Feature",
      "properties": {
        "@id": "node/367945276",
        "ele": "3422",
        "name": "Dent du Requin",
        "natural": "peak",
        "wikidata": "Q3023323",
        "wikipedia": "fr:Dent du Requin"
      },
      "geometry": {
        "type": "Point",
        "coordinates": [
          6.9174277,
          45.8873048
        ]
      },
      "id": "node/367945276"
    },
    {
      "type": "Feature",
      "properties": {
        "@id": "node/367945277",
        "ele": "3503",
        "fixme": "\"Les Périades\" is not a peak but a ridge. Therefore it should be mapped not as a point but as a relation of peaks and a line for the ridge itself. Need on site data for a precise mapping",
        "name": "Les Périades",
        "natural": "peak",
        "wikidata": "Q3830848",
        "wikipedia": "fr:Les Périades"
      },
      "geometry": {
        "type": "Point",
        "coordinates": [
          6.9621884,
          45.8809491
        ]
      },
      "id": "node/367945277"
    },
    {
      "type": "Feature",
      "properties": {
        "@id": "node/367945278",
        "ele": "3412",
        "name": "Aiguille du Moine",
        "natural": "peak",
        "wikidata": "Q2827894",
        "wikipedia": "fr:Aiguille du Moine"
      },
      "geometry": {
        "type": "Point",
        "coordinates": [
          6.9605217,
          45.916786
        ]
      },
      "id": "node/367945278"
    },
    {
      "type": "Feature",
      "properties": {
        "@id": "node/367945280",
        "ele": "3970",
        "name": "Mont Mallet",
        "natural": "peak",
        "wikidata": "Q971497",
        "wikipedia": "fr:Mont Mallet"
      },
      "geometry": {
        "type": "Point",
        "coordinates": [
          6.9616216,
          45.8657449
        ]
      },
      "id": "node/367945280"
    },
    {
      "type": "Feature",
      "properties": {
        "@id": "node/367945303",
        "alt_name": "Le Grand Flambeau",
        "alt_name:fr": "Le Grand Flambeau",
        "ele": "3569",
        "name": "Grand Flambeau",
        "name:fr": "Grand Flambeau",
        "name:it": "Grand Flambeau",
        "natural": "peak",
        "wikidata": "Q3775048",
        "wikipedia": "it:Grand Flambeau"
      },
      "geometry": {
        "type": "Point",
        "coordinates": [
          6.9281489,
          45.8479178
        ]
      },
      "id": "node/367945303"
    },
    {
      "type": "Feature",
      "properties": {
        "@id": "node/367945330",
        "ele": "3673",
        "name": "Dômes de Miage",
        "natural": "peak",
        "wikidata": "Q646311",
        "wikimedia_commons": "Category:Dômes de Miage",
        "wikipedia": "en:Dômes de Miage"
      },
      "geometry": {
        "type": "Point",
        "coordinates": [
          6.8002767,
          45.8152681
        ]
      },
      "id": "node/367945330"
    },
    {
      "type": "Feature",
      "properties": {
        "@id": "node/367945332",
        "ele": "3752",
        "name": "Tête Carrée",
        "natural": "peak",
        "source": "Carta Tecnica Regione VDA"
      },
      "geometry": {
        "type": "Point",
        "coordinates": [
          6.811815,
          45.8017236
        ]
      },
      "id": "node/367945332"
    },
    {
      "type": "Feature",
      "properties": {
        "@id": "node/367945338",
        "ele": "3425",
        "name": "Aiguille de la Bérangère",
        "natural": "peak",
        "wikidata": "Q3607098",
        "wikimedia_commons": "Category:Aiguille de la Bérangère"
      },
      "geometry": {
        "type": "Point",
        "coordinates": [
          6.7787895,
          45.8027724
        ]
      },
      "id": "node/367945338"
    },
    {
      "type": "Feature",
      "properties": {
        "@id": "node/367945343",
        "ele": "3838",
        "name": "Le Grand Capucin",
        "natural": "peak",
        "wikidata": "Q205392",
        "wikipedia": "en:Grand Capucin"
      },
      "geometry": {
        "type": "Point",
        "coordinates": [
          6.8997785,
          45.8520297
        ]
      },
      "id": "node/367945343"
    },
    {
      "type": "Feature",
      "properties": {
        "@id": "node/368006357",
        "ele": "3382",
        "name": "Pic de la Pyramide",
        "natural": "peak",
        "source": "cadastre-dgi-fr source : Direction Générale des Impôts - Cadastre ; mise à jour : 2009",
        "wikidata": "Q27866206"
      },
      "geometry": {
        "type": "Point",
        "coordinates": [
          6.1293104,
          45.1327023
        ]
      },
      "id": "node/368006357"
    },
    {
      "type": "Feature",
      "properties": {
        "@id": "node/368307587",
        "ele": "3012",
        "name": "Pic de l'Herpie",
        "natural": "peak",
        "source": "cadastre-dgi-fr source : Direction Générale des Impôts - Cadastre ; mise à jour : 2009",
        "wikidata": "Q114089243"
      },
      "geometry": {
        "type": "Point",
        "coordinates": [
          6.1160766,
          45.1095625
        ]
      },
      "id": "node/368307587"
    },
    {
      "type": "Feature",
      "properties": {
        "@id": "node/369467782",
        "ele": "3638",
        "name": "Le Cardinal",
        "natural": "peak",
        "wikidata": "Q117773814"
      },
      "geometry": {
        "type": "Point",
        "coordinates": [
          6.9653994,
          45.9278286
        ]
      },
      "id": "node/369467782"
    },
    {
      "type": "Feature",
      "properties": {
        "@id": "node/369467784",
        "ele": "3469",
        "name": "L'Évêque",
        "natural": "peak",
        "wikidata": "Q117773526"
      },
      "geometry": {
        "type": "Point",
        "coordinates": [
          6.9619797,
          45.9239521
        ]
      },
      "id": "node/369467784"
    },
    {
      "type": "Feature",
      "properties": {
        "@id": "node/369467786",
        "ele": "3341",
        "name": "La Nonne",
        "natural": "peak",
        "wikidata": "Q117773303"
      },
      "geometry": {
        "type": "Point",
        "coordinates": [
          6.9607303,
          45.9200315
        ]
      },
      "id": "node/369467786"
    },
    {
      "type": "Feature",
      "properties": {
        "@id": "node/376414571",
        "ele": "3340",
        "name": "AIguille Occidentale de la Saussaz",
        "natural": "peak",
        "source": "cadastre-dgi-fr source : Direction Générale des Impôts - Cadastre. Mise à jour : 2009"
      },
      "geometry": {
        "type": "Point",
        "coordinates": [
          6.3138338,
          45.1118228
        ]
      },
      "id": "node/376414571"
    },
    {
      "type": "Feature",
      "properties": {
        "@id": "node/376447524",
        "ele": "3514",
        "name": "Aiguille Méridionale d'Arves",
        "natural": "peak",
        "prominence": "1433"
      },
      "geometry": {
        "type": "Point",
        "coordinates": [
          6.3352834,
          45.1224578
        ]
      },
      "id": "node/376447524"
    },
    {
      "type": "Feature",
      "properties": {
        "@id": "node/376452412",
        "ele": "3454",
        "name": "Bec de l'Homme",
        "natural": "peak",
        "source": "cadastre-dgi-fr source : Direction Générale des Impôts - Cadastre. Mise à jour : 2009",
        "wikidata": "Q31394367"
      },
      "geometry": {
        "type": "Point",
        "coordinates": [
          6.3299734,
          45.0163178
        ]
      },
      "id": "node/376452412"
    },
    {
      "type": "Feature",
      "properties": {
        "@id": "node/376453514",
        "alt_name": "Pic Central de la Meije",
        "ele": "3973",
        "name": "Doigt de Dieu",
        "natural": "peak",
        "source": "cadastre-dgi-fr source : Direction Générale des Impôts - Cadastre. Mise à jour : 2009"
      },
      "geometry": {
        "type": "Point",
        "coordinates": [
          6.3136876,
          45.0041641
        ]
      },
      "id": "node/376453514"
    },
    {
      "type": "Feature",
      "properties": {
        "@id": "node/376453958",
        "ele": "3862",
        "name": "Pic du Glacier Carré",
        "natural": "peak",
        "source": "cadastre-dgi-fr source : Direction Générale des Impôts - Cadastre. Mise à jour : 2009"
      },
      "geometry": {
        "type": "Point",
        "coordinates": [
          6.3060385,
          45.0044304
        ]
      },
      "id": "node/376453958"
    },
    {
      "type": "Feature",
      "properties": {
        "@id": "node/376454194",
        "ele": "3764",
        "name": "Le Grand Doigt",
        "natural": "peak",
        "source": "cadastre-dgi-fr source : Direction Générale des Impôts - Cadastre. Mise à jour : 2009"
      },
      "geometry": {
        "type": "Point",
        "coordinates": [
          6.3029383,
          45.0036931
        ]
      },
      "id": "node/376454194"
    },
    {
      "type": "Feature",
      "properties": {
        "@id": "node/376784812",
        "ele": "3067",
        "name": "Roche Noire",
        "natural": "peak",
        "source": "cadastre-dgi-fr source : Direction Générale des Impôts - Cadastre ; mise à jour : 2009"
      },
      "geometry": {
        "type": "Point",
        "coordinates": [
          6.5389295,
          45.1454456
        ]
      },
      "id": "node/376784812"
    },
    {
      "type": "Feature",
      "properties": {
        "@id": "node/376785703",
        "ele": "3207",
        "name": "Pic du Thabor",
        "natural": "peak",
        "source": "cadastre-dgi-fr source : Direction Générale des Impôts - Cadastre ; mise à jour : 2009",
        "wikidata": "Q20656626"
      },
      "geometry": {
        "type": "Point",
        "coordinates": [
          6.5619384,
          45.1187033
        ]
      },
      "id": "node/376785703"
    },
    {
      "type": "Feature",
      "properties": {
        "@id": "node/376785728",
        "ele": "3178",
        "name": "Mont Thabor",
        "natural": "peak",
        "source": "Wikipedia",
        "summit:cross": "no",
        "summit:register": "no",
        "wikidata": "Q1290356",
        "wikipedia": "fr:Mont Thabor (France)"
      },
      "geometry": {
        "type": "Point",
        "coordinates": [
          6.5637534,
          45.114076
        ]
      },
      "id": "node/376785728"
    },
    {
      "type": "Feature",
      "properties": {
        "@id": "node/376828512",
        "ele": "3511",
        "name": "Mont de Gébroulaz",
        "natural": "peak",
        "source": "GPS averaging",
        "wikidata": "Q1606770"
      },
      "geometry": {
        "type": "Point",
        "coordinates": [
          6.6293963,
          45.2747423
        ]
      },
      "id": "node/376828512"
    },
    {
      "type": "Feature",
      "properties": {
        "@id": "node/387867826",
        "ele": "3538",
        "name": "Rocher de l'Encoula",
        "natural": "peak"
      },
      "geometry": {
        "type": "Point",
        "coordinates": [
          6.2817764,
          44.906702
        ]
      },
      "id": "node/387867826"
    },
    {
      "type": "Feature",
      "properties": {
        "@id": "node/387867827",
        "ele": "3563",
        "name": "Cime de Clot Châtel",
        "natural": "peak"
      },
      "geometry": {
        "type": "Point",
        "coordinates": [
          6.2800469,
          44.8972126
        ]
      },
      "id": "node/387867827"
    },
    {
      "type": "Feature",
      "properties": {
        "@id": "node/387867829",
        "ele": "3045",
        "name": "Tête de l'Ours",
        "natural": "peak",
        "wikidata": "Q32173924"
      },
      "geometry": {
        "type": "Point",
        "coordinates": [
          6.2342261,
          44.9193473
        ]
      },
      "id": "node/387867829"
    },
    {
      "type": "Feature",
      "properties": {
        "@id": "node/387867830",
        "ele": "3245",
        "name": "Pointe Jeanne",
        "natural": "peak"
      },
      "geometry": {
        "type": "Point",
        "coordinates": [
          6.2363503,
          44.9082007
        ]
      },
      "id": "node/387867830"
    },
    {
      "type": "Feature",
      "properties": {
        "@id": "node/387867831",
        "ele": "3459",
        "name": "Tête des Fétoules",
        "natural": "peak",
        "wikidata": "Q3546964"
      },
      "geometry": {
        "type": "Point",
        "coordinates": [
          6.2370618,
          44.8998932
        ]
      },
      "id": "node/387867831"
    },
    {
      "type": "Feature",
      "properties": {
        "@id": "node/387868403",
        "ele": "3319",
        "name": "Pointe de la Muande",
        "natural": "peak"
      },
      "geometry": {
        "type": "Point",
        "coordinates": [
          6.2532172,
          44.855063
        ]
      },
      "id": "node/387868403"
    },
    {
      "type": "Feature",
      "properties": {
        "@id": "node/387868461",
        "ele": "3341",
        "name": "Tête de Lauranoure",
        "natural": "peak",
        "wikidata": "Q3546927"
      },
      "geometry": {
        "type": "Point",
        "coordinates": [
          6.1510908,
          44.9261398
        ]
      },
      "id": "node/387868461"
    },
    {
      "type": "Feature",
      "properties": {
        "@id": "node/387868462",
        "ele": "3231",
        "name": "Tête du Salude",
        "natural": "peak"
      },
      "geometry": {
        "type": "Point",
        "coordinates": [
          6.1474513,
          44.9148988
        ]
      },
      "id": "node/387868462"
    },
    {
      "type": "Feature",
      "properties": {
        "@id": "node/387868463",
        "ele": "3118",
        "name": "Tête de la Marsare",
        "natural": "peak",
        "wikidata": "Q32173889"
      },
      "geometry": {
        "type": "Point",
        "coordinates": [
          6.2145819,
          44.9511728
        ]
      },
      "id": "node/387868463"
    },
    {
      "type": "Feature",
      "properties": {
        "@id": "node/387868464",
        "ele": "3168",
        "name": "Tête du Graou",
        "natural": "peak"
      },
      "geometry": {
        "type": "Point",
        "coordinates": [
          6.2149683,
          44.9566935
        ]
      },
      "id": "node/387868464"
    },
    {
      "type": "Feature",
      "properties": {
        "@id": "node/387868466",
        "ele": "3542",
        "name": "Tête de la Gandolière",
        "natural": "peak",
        "wikidata": "Q726652"
      },
      "geometry": {
        "type": "Point",
        "coordinates": [
          6.2710489,
          44.9742415
        ]
      },
      "id": "node/387868466"
    },
    {
      "type": "Feature",
      "properties": {
        "@id": "node/389043662",
        "ele": "3669",
        "name": "Pic de la Grave",
        "natural": "peak",
        "wikidata": "Q3382409",
        "wikipedia": "fr:Pic de la Grave"
      },
      "geometry": {
        "type": "Point",
        "coordinates": [
          6.2541959,
          44.9952379
        ]
      },
      "id": "node/389043662"
    },
    {
      "type": "Feature",
      "properties": {
        "@id": "node/389043663",
        "ele": "3292",
        "name": "Le Jandri",
        "natural": "peak"
      },
      "geometry": {
        "type": "Point",
        "coordinates": [
          6.2044788,
          44.9927481
        ]
      },
      "id": "node/389043663"
    },
    {
      "type": "Feature",
      "properties": {
        "@id": "node/389043670",
        "ele": "3428",
        "name": "Tête Sud du Replat",
        "natural": "peak",
        "note": "Altitude de la tête sud. Sans doute à distinguer de la tête nord à terme",
        "wikidata": "Q32173818"
      },
      "geometry": {
        "type": "Point",
        "coordinates": [
          6.2791448,
          44.9837595
        ]
      },
      "id": "node/389043670"
    },
    {
      "type": "Feature",
      "properties": {
        "@id": "node/389043827",
        "ele": "3831",
        "name": "Le Pave",
        "natural": "peak",
        "wikidata": "Q3225330"
      },
      "geometry": {
        "type": "Point",
        "coordinates": [
          6.32452,
          44.99867
        ]
      },
      "id": "node/389043827"
    },
    {
      "type": "Feature",
      "properties": {
        "@id": "node/389043828",
        "ele": "3882",
        "name": "Pic Gaspard",
        "natural": "peak",
        "wikidata": "Q1424575",
        "wikipedia": "fr:Pic Gaspard"
      },
      "geometry": {
        "type": "Point",
        "coordinates": [
          6.3305818,
          44.9978931
        ]
      },
      "id": "node/389043828"
    },
    {
      "type": "Feature",
      "properties": {
        "@id": "node/389043830",
        "alt_name": "Pics de Neige du Lautaret",
        "ele": "3537",
        "name": "Pointe Nérot",
        "natural": "peak"
      },
      "geometry": {
        "type": "Point",
        "coordinates": [
          6.3523292,
          44.9997419
        ]
      },
      "id": "node/389043830"
    },
    {
      "type": "Feature",
      "properties": {
        "@id": "node/389043924",
        "ele": "3118",
        "name": "Roc Noir de Combeynot",
        "natural": "peak",
        "wikidata": "Q31663413"
      },
      "geometry": {
        "type": "Point",
        "coordinates": [
          6.4016875,
          45.0113503
        ]
      },
      "id": "node/389043924"
    },
    {
      "type": "Feature",
      "properties": {
        "@id": "node/389044480",
        "alt_name": "Pointe Brevoort",
        "ele": "3765",
        "name": "La Grande Ruine",
        "natural": "peak",
        "wikidata": "Q2330728"
      },
      "geometry": {
        "type": "Point",
        "coordinates": [
          6.3292408,
          44.9675913
        ]
      },
      "id": "node/389044480"
    },
    {
      "type": "Feature",
      "properties": {
        "@id": "node/389044481",
        "ele": "3712",
        "name": "Roche Méane",
        "natural": "peak",
        "wikidata": "Q15615097"
      },
      "geometry": {
        "type": "Point",
        "coordinates": [
          6.3352127,
          44.97025
        ]
      },
      "id": "node/389044481"
    },
    {
      "type": "Feature",
      "properties": {
        "@id": "node/389044482",
        "ele": "3309",
        "name": "Pics des Cavales",
        "natural": "peak"
      },
      "geometry": {
        "type": "Point",
        "coordinates": [
          6.3236617,
          44.971247
        ]
      },
      "id": "node/389044482"
    },
    {
      "type": "Feature",
      "properties": {
        "@id": "node/389044483",
        "ele": "3300",
        "name": "Pointe Emma",
        "natural": "peak",
        "wikidata": "Q31394381"
      },
      "geometry": {
        "type": "Point",
        "coordinates": [
          6.316924,
          44.9848649
        ]
      },
      "id": "node/389044483"
    },
    {
      "type": "Feature",
      "properties": {
        "@id": "node/389044728",
        "ele": "3442",
        "name": "Tête de Charrière",
        "natural": "peak"
      },
      "geometry": {
        "type": "Point",
        "coordinates": [
          6.3231039,
          44.9546248
        ]
      },
      "id": "node/389044728"
    },
    {
      "type": "Feature",
      "properties": {
        "@id": "node/389044731",
        "ele": "3534",
        "name": "Sommet Sud-Est de la Roche d'Alveau",
        "natural": "peak"
      },
      "geometry": {
        "type": "Point",
        "coordinates": [
          6.3434886,
          44.9437379
        ]
      },
      "id": "node/389044731"
    },
    {
      "type": "Feature",
      "properties": {
        "@id": "node/389044733",
        "ele": "3613",
        "name": "Pic de Neige Cordier",
        "natural": "peak",
        "wikidata": "Q1617187"
      },
      "geometry": {
        "type": "Point",
        "coordinates": [
          6.3890661,
          44.9560656
        ]
      },
      "id": "node/389044733"
    },
    {
      "type": "Feature",
      "properties": {
        "@id": "node/389044820",
        "ele": "3240",
        "name": "Pic d'Arsine",
        "natural": "peak",
        "wikidata": "Q110811863"
      },
      "geometry": {
        "type": "Point",
        "coordinates": [
          6.3876436,
          44.9644269
        ]
      },
      "id": "node/389044820"
    },
    {
      "type": "Feature",
      "properties": {
        "@id": "node/389044821",
        "ele": "3188",
        "name": "Pic du Dragon",
        "natural": "peak"
      },
      "geometry": {
        "type": "Point",
        "coordinates": [
          6.3868504,
          44.9686089
        ]
      },
      "id": "node/389044821"
    },
    {
      "type": "Feature",
      "properties": {
        "@id": "node/389046971",
        "ele": "3320",
        "name": "Dôme de Monêtier",
        "natural": "peak",
        "wikidata": "Q3045553"
      },
      "geometry": {
        "type": "Point",
        "coordinates": [
          6.4525231,
          44.9307398
        ]
      },
      "id": "node/389046971"
    },
    {
      "type": "Feature",
      "properties": {
        "@id": "node/389046972",
        "ele": "3478",
        "name": "Pic du Rif",
        "natural": "peak"
      },
      "geometry": {
        "type": "Point",
        "coordinates": [
          6.446214,
          44.9294782
        ]
      },
      "id": "node/389046972"
    },
    {
      "type": "Feature",
      "properties": {
        "@id": "node/389046973",
        "ele": "3480",
        "name": "Pointe des Arcas",
        "natural": "peak",
        "wikidata": "Q3393689"
      },
      "geometry": {
        "type": "Point",
        "coordinates": [
          6.4469128,
          44.9283522
        ]
      },
      "id": "node/389046973"
    },
    {
      "type": "Feature",
      "properties": {
        "@id": "node/389046974",
        "ele": "3465",
        "name": "Pic de Clouzis",
        "natural": "peak",
        "wikidata": "Q31394350"
      },
      "geometry": {
        "type": "Point",
        "coordinates": [
          6.4608192,
          44.91992
        ]
      },
      "id": "node/389046974"
    },
    {
      "type": "Feature",
      "properties": {
        "@id": "node/389046980",
        "ele": "3139",
        "name": "Pic de Coste Vieille",
        "natural": "peak"
      },
      "geometry": {
        "type": "Point",
        "coordinates": [
          6.4634799,
          44.9124097
        ]
      },
      "id": "node/389046980"
    },
    {
      "type": "Feature",
      "properties": {
        "@id": "node/389046981",
        "ele": "3025",
        "name": "Aiguille des Frères Estiennes",
        "natural": "peak"
      },
      "geometry": {
        "type": "Point",
        "coordinates": [
          6.4635658,
          44.9083329
        ]
      },
      "id": "node/389046981"
    },
    {
      "type": "Feature",
      "properties": {
        "@id": "node/389047618",
        "ele": "3159",
        "name": "Tête de Chéret",
        "natural": "peak",
        "wikidata": "Q32173835"
      },
      "geometry": {
        "type": "Point",
        "coordinates": [
          6.3117956,
          44.8883195
        ]
      },
      "id": "node/389047618"
    },
    {
      "type": "Feature",
      "properties": {
        "@id": "node/389047619",
        "ele": "3409",
        "name": "Pics du Says",
        "natural": "peak",
        "wikidata": "Q31393612"
      },
      "geometry": {
        "type": "Point",
        "coordinates": [
          6.3039207,
          44.8729709
        ]
      },
      "id": "node/389047619"
    },
    {
      "type": "Feature",
      "properties": {
        "@id": "node/389047620",
        "ele": "3350",
        "name": "Mont Gioberney",
        "natural": "peak",
        "wikidata": "Q3861036"
      },
      "geometry": {
        "type": "Point",
        "coordinates": [
          6.3173525,
          44.861586
        ]
      },
      "id": "node/389047620"
    },
    {
      "type": "Feature",
      "properties": {
        "@id": "node/389047621",
        "ele": "3350",
        "name": "Pointe Richardson",
        "natural": "peak",
        "wikidata": "Q3393553"
      },
      "geometry": {
        "type": "Point",
        "coordinates": [
          6.3201176,
          44.8570584
        ]
      },
      "id": "node/389047621"
    },
    {
      "type": "Feature",
      "properties": {
        "@id": "node/389047622",
        "alt_name": "Les Bans",
        "ele": "3669",
        "name": "Sommet Sud des Bans",
        "natural": "peak",
        "wikidata": "Q637359"
      },
      "geometry": {
        "type": "Point",
        "coordinates": [
          6.3361499,
          44.8488711
        ]
      },
      "id": "node/389047622"
    },
    {
      "type": "Feature",
      "properties": {
        "@id": "node/389047623",
        "ele": "3527",
        "name": "Cime du Coin",
        "natural": "peak"
      },
      "geometry": {
        "type": "Point",
        "coordinates": [
          6.3507842,
          44.8734342
        ]
      },
      "id": "node/389047623"
    },
    {
      "type": "Feature",
      "properties": {
        "@id": "node/389502283",
        "ele": "3266",
        "name": "Aiguille du Canard",
        "natural": "peak"
      },
      "geometry": {
        "type": "Point",
        "coordinates": [
          6.179552,
          44.8997499
        ]
      },
      "id": "node/389502283"
    },
    {
      "type": "Feature",
      "properties": {
        "@id": "node/389502285",
        "ele": "3151",
        "name": "Pointe de la Mariande",
        "natural": "peak"
      },
      "geometry": {
        "type": "Point",
        "coordinates": [
          6.1477088,
          44.9011691
        ]
      },
      "id": "node/389502285"
    },
    {
      "type": "Feature",
      "properties": {
        "@id": "node/389502286",
        "ele": "3137",
        "name": "Pointe du Grand Vallon",
        "natural": "peak"
      },
      "geometry": {
        "type": "Point",
        "coordinates": [
          6.1654758,
          44.896445
        ]
      },
      "id": "node/389502286"
    },
    {
      "type": "Feature",
      "properties": {
        "@id": "node/389502325",
        "ele": "3300",
        "name": "Pointe Swan",
        "natural": "peak"
      },
      "geometry": {
        "type": "Point",
        "coordinates": [
          6.1148357,
          44.9080753
        ]
      },
      "id": "node/389502325"
    },
    {
      "type": "Feature",
      "properties": {
        "@id": "node/389502327",
        "ele": "3251",
        "name": "Pointe Marguerite",
        "natural": "peak"
      },
      "geometry": {
        "type": "Point",
        "coordinates": [
          6.1121749,
          44.914856
        ]
      },
      "id": "node/389502327"
    },
    {
      "type": "Feature",
      "properties": {
        "@id": "node/389502328",
        "ele": "3034",
        "name": "Le Petit Roux",
        "natural": "peak"
      },
      "geometry": {
        "type": "Point",
        "coordinates": [
          6.1164664,
          44.9404329
        ]
      },
      "id": "node/389502328"
    },
    {
      "type": "Feature",
      "properties": {
        "@id": "node/389502335",
        "ele": "3263",
        "name": "Cîme du Montagnon",
        "natural": "peak"
      },
      "geometry": {
        "type": "Point",
        "coordinates": [
          6.1454557,
          44.9097989
        ]
      },
      "id": "node/389502335"
    },
    {
      "type": "Feature",
      "properties": {
        "@id": "node/389502336",
        "ele": "3400",
        "name": "Aiguille des Arias",
        "natural": "peak",
        "wikidata": "Q2827887"
      },
      "geometry": {
        "type": "Point",
        "coordinates": [
          6.1710548,
          44.8943971
        ]
      },
      "id": "node/389502336"
    },
    {
      "type": "Feature",
      "properties": {
        "@id": "node/389502337",
        "ele": "3290",
        "name": "Aiguille d'Entre-Pierroux",
        "natural": "peak"
      },
      "geometry": {
        "type": "Point",
        "coordinates": [
          6.1772271,
          44.8901322
        ]
      },
      "id": "node/389502337"
    },
    {
      "type": "Feature",
      "properties": {
        "@id": "node/389502338",
        "ele": "3157",
        "name": "Aiguille Rousse",
        "natural": "peak"
      },
      "geometry": {
        "type": "Point",
        "coordinates": [
          6.1799737,
          44.8824152
        ]
      },
      "id": "node/389502338"
    },
    {
      "type": "Feature",
      "properties": {
        "@id": "node/389502339",
        "ele": "3329",
        "name": "Pointe Maximin",
        "natural": "peak",
        "wikidata": "Q123937360"
      },
      "geometry": {
        "type": "Point",
        "coordinates": [
          6.1867886,
          44.8775676
        ]
      },
      "id": "node/389502339"
    },
    {
      "type": "Feature",
      "properties": {
        "@id": "node/389502340",
        "ele": "3373",
        "name": "Aiguille de l'Olan",
        "natural": "peak"
      },
      "geometry": {
        "type": "Point",
        "coordinates": [
          6.2008782,
          44.8766635
        ]
      },
      "id": "node/389502340"
    },
    {
      "type": "Feature",
      "properties": {
        "@id": "node/389502733",
        "ele": "3418",
        "name": "Cime du Vallon",
        "natural": "peak",
        "wikidata": "Q3676849"
      },
      "geometry": {
        "type": "Point",
        "coordinates": [
          6.2222957,
          44.8537691
        ]
      },
      "id": "node/389502733"
    },
    {
      "type": "Feature",
      "properties": {
        "@id": "node/389502734",
        "ele": "3031",
        "name": "Pic Turbat",
        "natural": "peak"
      },
      "geometry": {
        "type": "Point",
        "coordinates": [
          6.1698394,
          44.8530814
        ]
      },
      "id": "node/389502734"
    },
    {
      "type": "Feature",
      "properties": {
        "@id": "node/389502735",
        "ele": "3099",
        "name": "Pic des Souffles",
        "natural": "peak",
        "wikidata": "Q7190475"
      },
      "geometry": {
        "type": "Point",
        "coordinates": [
          6.1364596,
          44.86391
        ]
      },
      "id": "node/389502735"
    },
    {
      "type": "Feature",
      "properties": {
        "@id": "node/389502736",
        "ele": "3057",
        "name": "Aiguille des Marmes",
        "natural": "peak",
        "wikidata": "Q31393843"
      },
      "geometry": {
        "type": "Point",
        "coordinates": [
          6.0994556,
          44.8952784
        ]
      },
      "id": "node/389502736"
    },
    {
      "type": "Feature",
      "properties": {
        "@id": "node/389502737",
        "ele": "3913",
        "name": "Pic Sans Nom",
        "natural": "peak",
        "wikidata": "Q2541646"
      },
      "geometry": {
        "type": "Point",
        "coordinates": [
          6.3842443,
          44.8932777
        ]
      },
      "id": "node/389502737"
    },
    {
      "type": "Feature",
      "properties": {
        "@id": "node/389502738",
        "ele": "3314",
        "name": "Pic de la Temple",
        "natural": "peak"
      },
      "geometry": {
        "type": "Point",
        "coordinates": [
          6.3542175,
          44.8969169
        ]
      },
      "id": "node/389502738"
    },
    {
      "type": "Feature",
      "properties": {
        "@id": "node/389502739",
        "ele": "3775",
        "name": "Pic Coolidge",
        "natural": "peak",
        "wikidata": "Q673554"
      },
      "geometry": {
        "type": "Point",
        "coordinates": [
          6.3570573,
          44.9099462
        ]
      },
      "id": "node/389502739"
    },
    {
      "type": "Feature",
      "properties": {
        "@id": "node/389502740",
        "ele": "3680",
        "name": "Le Fifre",
        "natural": "peak",
        "wikidata": "Q3222757"
      },
      "geometry": {
        "type": "Point",
        "coordinates": [
          6.3563295,
          44.916376
        ]
      },
      "id": "node/389502740"
    },
    {
      "type": "Feature",
      "properties": {
        "@id": "node/389502741",
        "ele": "3660",
        "name": "Pointe de la Grande Sagne",
        "natural": "peak"
      },
      "geometry": {
        "type": "Point",
        "coordinates": [
          6.383829,
          44.93464
        ]
      },
      "id": "node/389502741"
    },
    {
      "type": "Feature",
      "properties": {
        "@id": "node/389502742",
        "ele": "3224",
        "name": "Pointe de Balme Rousse",
        "natural": "peak"
      },
      "geometry": {
        "type": "Point",
        "coordinates": [
          6.3277816,
          44.914341
        ]
      },
      "id": "node/389502742"
    },
    {
      "type": "Feature",
      "properties": {
        "@id": "node/389502743",
        "ele": "3188",
        "name": "Pointe de Pié Bérarde",
        "natural": "peak"
      },
      "geometry": {
        "type": "Point",
        "coordinates": [
          6.3286399,
          44.926131
        ]
      },
      "id": "node/389502743"
    },
    {
      "type": "Feature",
      "properties": {
        "@id": "node/390362985",
        "ele": "3071",
        "name": "Tête du Lac Noir",
        "natural": "peak"
      },
      "geometry": {
        "type": "Point",
        "coordinates": [
          6.1914932,
          44.9998219
        ]
      },
      "id": "node/390362985"
    },
    {
      "type": "Feature",
      "properties": {
        "@id": "node/390362986",
        "ele": "3052",
        "name": "Roche Mantel",
        "natural": "peak"
      },
      "geometry": {
        "type": "Point",
        "coordinates": [
          6.1969756,
          45.0099016
        ]
      },
      "id": "node/390362986"
    },
    {
      "type": "Feature",
      "properties": {
        "@id": "node/390988899",
        "ele": "3127",
        "name": "Pointe Léchaud / Punta Lechaud",
        "name:fr": "Pointe Léchaud",
        "name:it": "Punta Lechaud",
        "natural": "peak",
        "source": "cadastre-dgi-fr source : Direction Générale des Impôts - Cadastre. Mise à jour : 2009"
      },
      "geometry": {
        "type": "Point",
        "coordinates": [
          6.8141703,
          45.7337885
        ]
      },
      "id": "node/390988899"
    },
    {
      "type": "Feature",
      "properties": {
        "@id": "node/391413466",
        "ele": "3506",
        "name": "Aiguille de Scolette / Pierre Menue",
        "name:fr": "Aiguille de Scolette",
        "name:it": "Pierre Menue",
        "natural": "peak",
        "prominence": "1069",
        "source": "cadastre-dgi-fr source : Direction Générale des Impôts - Cadastre. Mise à jour : 2009",
        "summit:cross": "yes",
        "wikidata": "Q2275702",
        "wikipedia": "fr:Aiguille de Scolette"
      },
      "geometry": {
        "type": "Point",
        "coordinates": [
          6.7682042,
          45.1597528
        ]
      },
      "id": "node/391413466"
    },
    {
      "type": "Feature",
      "properties": {
        "@id": "node/392506294",
        "ele": "3348",
        "name": "Pointe Orientale de l'Épéna",
        "natural": "peak",
        "source": "cadastre-dgi-fr source : Direction Générale des Impôts - Cadastre. Mise à jour : 2009"
      },
      "geometry": {
        "type": "Point",
        "coordinates": [
          6.8119278,
          45.4153527
        ]
      },
      "id": "node/392506294"
    },
    {
      "type": "Feature",
      "properties": {
        "@id": "node/392506335",
        "ele": "3392",
        "name": "Pointe de la Grande Glière",
        "natural": "peak",
        "source": "cadastre-dgi-fr source : Direction Générale des Impôts - Cadastre. Mise à jour : 2009",
        "wikidata": "Q123688278",
        "wikimedia_commons": "File:Pointe de la Grande Glière @ Cascade du Py.jpg",
        "wikipedia": "fr:Pointe de la Grande Glière"
      },
      "geometry": {
        "type": "Point",
        "coordinates": [
          6.7917929,
          45.412729
        ]
      },
      "id": "node/392506335"
    },
    {
      "type": "Feature",
      "properties": {
        "@id": "node/392506368",
        "ele": "3247",
        "name": "Ponte des Volnets",
        "natural": "peak",
        "source": "cadastre-dgi-fr source : Direction Générale des Impôts - Cadastre. Mise à jour : 2009"
      },
      "geometry": {
        "type": "Point",
        "coordinates": [
          6.7766539,
          45.416176
        ]
      },
      "id": "node/392506368"
    },
    {
      "type": "Feature",
      "properties": {
        "@id": "node/392506941",
        "ele": "3212",
        "name": "Pointe de la Réchasse",
        "natural": "peak",
        "source": "cadastre-dgi-fr source : Direction Générale des Impôts - Cadastre. Mise à jour : 2009",
        "wikidata": "Q2069473"
      },
      "geometry": {
        "type": "Point",
        "coordinates": [
          6.8021235,
          45.373394
        ]
      },
      "id": "node/392506941"
    },
    {
      "type": "Feature",
      "properties": {
        "@id": "node/392507081",
        "ele": "3601",
        "name": "Dôme de l'Arpont",
        "natural": "peak",
        "wikidata": "Q1629021"
      },
      "geometry": {
        "type": "Point",
        "coordinates": [
          6.7429504,
          45.3183334
        ]
      },
      "id": "node/392507081"
    },
    {
      "type": "Feature",
      "properties": {
        "@id": "node/392507241",
        "ele": "3154",
        "name": "Pointe du Creux Noir",
        "natural": "peak",
        "source": "cadastre-dgi-fr source : Direction Générale des Impôts - Cadastre. Mise à jour : 2009"
      },
      "geometry": {
        "type": "Point",
        "coordinates": [
          6.7569985,
          45.4062995
        ]
      },
      "id": "node/392507241"
    },
    {
      "type": "Feature",
      "properties": {
        "@id": "node/392512010",
        "ele": "3595",
        "name": "Dôme de la Sache",
        "natural": "peak",
        "note": "altitude mesurée au GPS. L'altitude sur les cartes IGN semble diminuer avec le temps 3601 -> 3588",
        "source": "GPS",
        "wikidata": "Q2352476"
      },
      "geometry": {
        "type": "Point",
        "coordinates": [
          6.8701605,
          45.5108554
        ]
      },
      "id": "node/392512010"
    },
    {
      "type": "Feature",
      "properties": {
        "@id": "node/392512046",
        "ele": "3779",
        "name": "Mont Pourri",
        "natural": "peak",
        "prominence": "1132",
        "source": "d'après fiche repère géodésique",
        "wikidata": "Q367431"
      },
      "geometry": {
        "type": "Point",
        "coordinates": [
          6.8600956,
          45.5281163
        ]
      },
      "id": "node/392512046"
    },
    {
      "type": "Feature",
      "properties": {
        "@id": "node/393756490",
        "ele": "3277",
        "name": "Ormelune / Pointe d'Archeboc",
        "name:fr": "Pointe d'Archeboc",
        "name:it": "Ormelune",
        "natural": "peak",
        "wikidata": "Q3886053",
        "wikipedia": "fr:Pointe d'Archeboc"
      },
      "geometry": {
        "type": "Point",
        "coordinates": [
          6.9805825,
          45.5833904
        ]
      },
      "id": "node/393756490"
    },
    {
      "type": "Feature",
      "properties": {
        "@id": "node/393762367",
        "ele": "3355",
        "name": "Pointe de Claret",
        "natural": "peak",
        "wikidata": "Q3393612"
      },
      "geometry": {
        "type": "Point",
        "coordinates": [
          6.9710826,
          45.3420027
        ]
      },
      "id": "node/393762367"
    },
    {
      "type": "Feature",
      "properties": {
        "@id": "node/393762388",
        "ele": "3434",
        "name": "Pointe NE du Chatelard",
        "natural": "peak"
      },
      "geometry": {
        "type": "Point",
        "coordinates": [
          6.9601174,
          45.3373979
        ]
      },
      "id": "node/393762388"
    },
    {
      "type": "Feature",
      "properties": {
        "@id": "node/393762427",
        "ele": "3413",
        "name": "Pointe du Vallonbrun",
        "natural": "peak"
      },
      "geometry": {
        "type": "Point",
        "coordinates": [
          6.9379677,
          45.330137
        ]
      },
      "id": "node/393762427"
    },
    {
      "type": "Feature",
      "properties": {
        "@id": "node/393768511",
        "ele": "3365",
        "fixme": "resurvey",
        "name": "Monte Niblè / Pointe Ferrand",
        "name:fr": "Pointe Ferrand",
        "name:it": "Monte Niblè",
        "natural": "peak",
        "source": "cadastre-dgi-fr source : Direction Générale des Impôts - Cadastre. Mise à jour : 2009",
        "wikidata": "Q3861783",
        "wikipedia": "it:Monte Niblè"
      },
      "geometry": {
        "type": "Point",
        "coordinates": [
          6.8957982,
          45.1388896
        ]
      },
      "id": "node/393768511"
    },
    {
      "type": "Feature",
      "properties": {
        "@id": "node/393768819",
        "ele": "3373",
        "name": "Rognosa d'Etache / Rognosa d'Etiache",
        "name:fr": "Rognosa d'Etache",
        "name:it": "Rognosa d'Etiache",
        "natural": "peak",
        "source": "cadastre-dgi-fr source : Direction Générale des Impôts - Cadastre. Mise à jour : 2009",
        "wikidata": "Q1145730",
        "wikipedia": "it:Rognosa d'Etiache"
      },
      "geometry": {
        "type": "Point",
        "coordinates": [
          6.8360477,
          45.1352253
        ]
      },
      "id": "node/393768819"
    },
    {
      "type": "Feature",
      "properties": {
        "@id": "node/393788210",
        "ele": "3233",
        "name": "Pointe des Buffettes",
        "natural": "peak",
        "source": "cadastre-dgi-fr source : Direction Générale des Impôts - Cadastre;mise à jour : 2009",
        "wikidata": "Q3393692"
      },
      "geometry": {
        "type": "Point",
        "coordinates": [
          7.0074659,
          45.3655573
        ]
      },
      "id": "node/393788210"
    },
    {
      "type": "Feature",
      "properties": {
        "@id": "node/393788649",
        "ele": "3371",
        "name": "Pointe des Lauses Noires / Punta Lose Nere",
        "name:fr": "Pointe des Lauses Noires",
        "name:it": "Punta Lose Nere",
        "natural": "peak",
        "source": "cadastre-dgi-fr source : Direction Générale des Impôts - Cadastre. Mise à jour : 2009"
      },
      "geometry": {
        "type": "Point",
        "coordinates": [
          7.1168876,
          45.2455905
        ]
      },
      "id": "node/393788649"
    },
    {
      "type": "Feature",
      "properties": {
        "@id": "node/393789620",
        "ele": "3315",
        "name": "Le Signal de Méan Martin",
        "natural": "peak",
        "source": "cadastre-dgi-fr source : Direction Générale des Impôts - Cadastre. Mise à jour : 2009"
      },
      "geometry": {
        "type": "Point",
        "coordinates": [
          6.9980778,
          45.3667895
        ]
      },
      "id": "node/393789620"
    },
    {
      "type": "Feature",
      "properties": {
        "@id": "node/393798416",
        "ele": "3469",
        "name": "Pointe Sud du Couart Dessus",
        "name:fr": "Pointe Sud du Couart Dessus",
        "natural": "peak",
        "source": "cadastre-dgi-fr source : Direction Générale des Impôts - Cadastre. Mise à jour : 2009"
      },
      "geometry": {
        "type": "Point",
        "coordinates": [
          7.0486167,
          45.472447
        ]
      },
      "id": "node/393798416"
    },
    {
      "type": "Feature",
      "properties": {
        "@id": "node/445583481",
        "ele": "3077",
        "name": "Pic du Montcalm",
        "natural": "peak",
        "source": "gps",
        "wikidata": "Q1479975"
      },
      "geometry": {
        "type": "Point",
        "coordinates": [
          1.4063347,
          42.6719036
        ]
      },
      "id": "node/445583481"
    },
    {
      "type": "Feature",
      "properties": {
        "@id": "node/445583491",
        "ele": "3129.4",
        "name": "Pic Verdaguer",
        "name:ca": "Pic Verdaguer",
        "natural": "peak",
        "source": "Institut Cartogràfic de Catalunya",
        "wikidata": "Q7190457",
        "wikipedia": "es:Pico Verdaguer"
      },
      "geometry": {
        "type": "Point",
        "coordinates": [
          1.396855,
          42.6680493
        ]
      },
      "id": "node/445583491"
    },
    {
      "type": "Feature",
      "properties": {
        "@id": "node/452399770",
        "ele": "3783",
        "name": "Pointe Mathews",
        "natural": "peak"
      },
      "geometry": {
        "type": "Point",
        "coordinates": [
          6.8216468,
          45.3995013
        ]
      },
      "id": "node/452399770"
    },
    {
      "type": "Feature",
      "properties": {
        "@id": "node/473228789",
        "ele": "3421",
        "name": "Tête Blanche",
        "natural": "peak",
        "source": "GPS",
        "wikidata": "Q22478434"
      },
      "geometry": {
        "type": "Point",
        "coordinates": [
          7.0190616,
          45.983959
        ]
      },
      "id": "node/473228789"
    },
    {
      "type": "Feature",
      "properties": {
        "@id": "node/494174406",
        "ele": "3085",
        "name": "Pic de Troumouse",
        "name:an": "Punta de Tormoseta",
        "natural": "peak",
        "wikidata": "Q2420237",
        "wikipedia": "fr:Pic de Troumouse"
      },
      "geometry": {
        "type": "Point",
        "coordinates": [
          0.1367431,
          42.7224452
        ]
      },
      "id": "node/494174406"
    },
    {
      "type": "Feature",
      "properties": {
        "@id": "node/494395635",
        "alt_name:ca": "Baletous;Marmuré",
        "alt_name:es": "Gran Marmuré;Pico de los Morros",
        "alt_name:fr": "Casterrille;Balaïtous;Balétous;Bat-Laetouse;Batlaytouse;Pic des Baïletous;Badescure;Grand Pic;Pic Qui Marmure;Pic Qui Murmure;Murmuré;Mur-Muré;Montagne de La Bassa",
        "alt_name:la": "Bat-Laetouse",
        "alt_name:oc": "Maumuret;Costerilhon;Som de Seuba",
        "ele": "3146",
        "name": "Pic du Balaïtous",
        "name:an": "Pico Moros/Balaitús",
        "name:es": "Pico Balaitús",
        "name:eu": "Balaitus",
        "name:fr": "Pic du Balaïtous",
        "name:oc": "Pic de Vath Laitós",
        "name:pl": "Balaitus",
        "natural": "peak",
        "official_name": "Pico Moros / Balaitús",
        "prominence": "851",
        "source:name:oc": "ieo-bdtopoc",
        "source:prominence": "3146-2295 (Port de la Peyre Saint Martin)",
        "wikidata": "Q2298456",
        "wikipedia": "es:Pico Balaitús"
      },
      "geometry": {
        "type": "Point",
        "coordinates": [
          -0.290257,
          42.8389387
        ]
      },
      "id": "node/494395635"
    },
    {
      "type": "Feature",
      "properties": {
        "@id": "node/503688240",
        "ele": "3733",
        "name": "Petit Dru",
        "natural": "peak"
      },
      "geometry": {
        "type": "Point",
        "coordinates": [
          6.9544787,
          45.9319163
        ]
      },
      "id": "node/503688240"
    },
    {
      "type": "Feature",
      "properties": {
        "@id": "node/503688527",
        "ele": "3856",
        "name": "Les Courtes",
        "natural": "peak",
        "wikidata": "Q38128",
        "wikipedia": "fr:Les Courtes"
      },
      "geometry": {
        "type": "Point",
        "coordinates": [
          7.0039859,
          45.9273818
        ]
      },
      "id": "node/503688527"
    },
    {
      "type": "Feature",
      "properties": {
        "@id": "node/503688529",
        "ele": "3799",
        "name": "Aiguille Chenavier",
        "natural": "peak"
      },
      "geometry": {
        "type": "Point",
        "coordinates": [
          7.0055417,
          45.9263537
        ]
      },
      "id": "node/503688529"
    },
    {
      "type": "Feature",
      "properties": {
        "@id": "node/503688530",
        "ele": "3742",
        "name": "Aiguille qui Remue",
        "natural": "peak"
      },
      "geometry": {
        "type": "Point",
        "coordinates": [
          7.0070112,
          45.9245978
        ]
      },
      "id": "node/503688530"
    },
    {
      "type": "Feature",
      "properties": {
        "@id": "node/503688535",
        "ele": "3658",
        "name": "Pointe de Pré de Bar Est",
        "natural": "peak",
        "source": "Carta Tecnica Regione VDA"
      },
      "geometry": {
        "type": "Point",
        "coordinates": [
          7.03817,
          45.9212942
        ]
      },
      "id": "node/503688535"
    },
    {
      "type": "Feature",
      "properties": {
        "@id": "node/503688743",
        "ele": "4035",
        "name": "Aiguille du Jardin",
        "natural": "peak",
        "wikidata": "Q30502",
        "wikipedia": "en:Aiguille du Jardin"
      },
      "geometry": {
        "type": "Point",
        "coordinates": [
          6.9758972,
          45.9333511
        ]
      },
      "id": "node/503688743"
    },
    {
      "type": "Feature",
      "properties": {
        "@id": "node/503688744",
        "ele": "4102",
        "name": "Grande Rocheuse",
        "natural": "peak",
        "wikidata": "Q30476",
        "wikipedia": "en:Grande Rocheuse"
      },
      "geometry": {
        "type": "Point",
        "coordinates": [
          6.9725739,
          45.9339484
        ]
      },
      "id": "node/503688744"
    },
    {
      "type": "Feature",
      "properties": {
        "@id": "node/503688748",
        "ele": "3982",
        "name": "Aiguille Sans Nom",
        "natural": "peak"
      },
      "geometry": {
        "type": "Point",
        "coordinates": [
          6.9642238,
          45.9333605
        ]
      },
      "id": "node/503688748"
    },
    {
      "type": "Feature",
      "properties": {
        "@id": "node/503688811",
        "ele": "3530",
        "name": "Pointe de Frébouze - Antoldi",
        "natural": "peak",
        "source": "Carta Tecnica Regione VDA"
      },
      "geometry": {
        "type": "Point",
        "coordinates": [
          6.9984471,
          45.8786167
        ]
      },
      "id": "node/503688811"
    },
    {
      "type": "Feature",
      "properties": {
        "@id": "node/503688816",
        "ele": "4065",
        "name": "Pointe Marguerite / Punta Margherita",
        "name:fr": "Pointe Marguerite",
        "name:it": "Punta Margherita",
        "natural": "peak",
        "wikidata": "Q3925690",
        "wikipedia": "it:Punta Margherita (Grandes Jorasses)"
      },
      "geometry": {
        "type": "Point",
        "coordinates": [
          6.9778602,
          45.8685716
        ]
      },
      "id": "node/503688816"
    },
    {
      "type": "Feature",
      "properties": {
        "@id": "node/503688820",
        "ele": "3560",
        "name": "Pointe Yeld",
        "natural": "peak"
      },
      "geometry": {
        "type": "Point",
        "coordinates": [
          6.9438731,
          45.865858
        ]
      },
      "id": "node/503688820"
    },
    {
      "type": "Feature",
      "properties": {
        "@id": "node/503688821",
        "ele": "3535",
        "name": "Aiguilles Marbrées",
        "natural": "peak",
        "wikidata": "Q3607100",
        "wikipedia": "it:Aiguilles Marbrées"
      },
      "geometry": {
        "type": "Point",
        "coordinates": [
          6.9411569,
          45.8515876
        ]
      },
      "id": "node/503688821"
    },
    {
      "type": "Feature",
      "properties": {
        "@id": "node/503688825",
        "ele": "3460",
        "name": "Pointe Sisyphe",
        "natural": "peak"
      },
      "geometry": {
        "type": "Point",
        "coordinates": [
          6.9600284,
          45.8745972
        ]
      },
      "id": "node/503688825"
    },
    {
      "type": "Feature",
      "properties": {
        "@id": "node/519333132",
        "ele": "3512",
        "name": "Petite Fourche",
        "natural": "peak",
        "source": "GPS",
        "wikidata": "Q22532710"
      },
      "geometry": {
        "type": "Point",
        "coordinates": [
          7.0221096,
          45.980414
        ]
      },
      "id": "node/519333132"
    },
    {
      "type": "Feature",
      "properties": {
        "@id": "node/527040376",
        "ele": "3592",
        "name": "Dôme des Glaciers",
        "natural": "peak"
      },
      "geometry": {
        "type": "Point",
        "coordinates": [
          6.7978047,
          45.7792528
        ]
      },
      "id": "node/527040376"
    },
    {
      "type": "Feature",
      "properties": {
        "@id": "node/566485952",
        "ele": "3032",
        "name": "Petit Vignemale",
        "natural": "peak",
        "source": "survey",
        "wikidata": "Q2053712"
      },
      "geometry": {
        "type": "Point",
        "coordinates": [
          -0.135048,
          42.774699
        ]
      },
      "id": "node/566485952"
    },
    {
      "type": "Feature",
      "properties": {
        "@id": "node/566485955",
        "ele": "3219",
        "name": "Pico de Montferrato",
        "name:an": "Pico de Montferrato",
        "name:es": "Pico de Montferrat",
        "name:fr": "Pic de Montferrat",
        "natural": "peak"
      },
      "geometry": {
        "type": "Point",
        "coordinates": [
          -0.1382876,
          42.7666277
        ]
      },
      "id": "node/566485955"
    },
    {
      "type": "Feature",
      "properties": {
        "@id": "node/575896583",
        "alt_name": "Cúspide de Bachimaña",
        "ele": "3005",
        "name": "Grande Fache",
        "name:an": "Punda dera Faxa",
        "name:es": "Pico de la Gran Facha",
        "name:fr": "Grande Fâche",
        "natural": "peak",
        "official_name": "Punda dera Faxa",
        "prominence": "283",
        "wikidata": "Q3114948",
        "wikipedia": "es:Pico Gran Facha"
      },
      "geometry": {
        "type": "Point",
        "coordinates": [
          -0.237874,
          42.8081942
        ]
      },
      "id": "node/575896583"
    },
    {
      "type": "Feature",
      "properties": {
        "@id": "node/582066925",
        "ele": "3208",
        "name": "Aiguille Occidentale du Soreiller",
        "natural": "peak"
      },
      "geometry": {
        "type": "Point",
        "coordinates": [
          6.2383888,
          44.9665101
        ]
      },
      "id": "node/582066925"
    },
    {
      "type": "Feature",
      "properties": {
        "@id": "node/582066929",
        "ele": "3299",
        "name": "Pointes de Burlan",
        "natural": "peak"
      },
      "geometry": {
        "type": "Point",
        "coordinates": [
          6.2342911,
          44.9685324
        ]
      },
      "id": "node/582066929"
    },
    {
      "type": "Feature",
      "properties": {
        "@id": "node/582066938",
        "ele": "3131",
        "name": "Aiguille Dibona",
        "natural": "peak",
        "wikidata": "Q1617977"
      },
      "geometry": {
        "type": "Point",
        "coordinates": [
          6.2428893,
          44.9632445
        ]
      },
      "id": "node/582066938"
    },
    {
      "type": "Feature",
      "properties": {
        "@id": "node/582066950",
        "ele": "3108",
        "name": "Clochetons Gunneng",
        "natural": "peak"
      },
      "geometry": {
        "type": "Point",
        "coordinates": [
          6.2426718,
          44.9636376
        ]
      },
      "id": "node/582066950"
    },
    {
      "type": "Feature",
      "properties": {
        "@id": "node/582066966",
        "ele": "3167",
        "name": "Tours Rouges de l'Aiguille Orientale",
        "natural": "peak"
      },
      "geometry": {
        "type": "Point",
        "coordinates": [
          6.2499363,
          44.96594
        ]
      },
      "id": "node/582066966"
    },
    {
      "type": "Feature",
      "properties": {
        "@id": "node/582067016",
        "ele": "3380",
        "name": "Aiguille Orientale du Soreiller",
        "natural": "peak"
      },
      "geometry": {
        "type": "Point",
        "coordinates": [
          6.2485168,
          44.9678346
        ]
      },
      "id": "node/582067016"
    },
    {
      "type": "Feature",
      "properties": {
        "@id": "node/582067019",
        "ele": "3338",
        "name": "Aiguille Centrale du Soreiller",
        "natural": "peak"
      },
      "geometry": {
        "type": "Point",
        "coordinates": [
          6.2417123,
          44.9668766
        ]
      },
      "id": "node/582067019"
    },
    {
      "type": "Feature",
      "properties": {
        "@id": "node/582067021",
        "ele": "3338",
        "name": "Pointe d'Amont",
        "natural": "peak"
      },
      "geometry": {
        "type": "Point",
        "coordinates": [
          6.2434467,
          44.9681545
        ]
      },
      "id": "node/582067021"
    },
    {
      "type": "Feature",
      "properties": {
        "@id": "node/582067040",
        "ele": "3435",
        "name": "Pic Gény",
        "natural": "peak"
      },
      "geometry": {
        "type": "Point",
        "coordinates": [
          6.2636665,
          44.957495
        ]
      },
      "id": "node/582067040"
    },
    {
      "type": "Feature",
      "properties": {
        "@id": "node/582067045",
        "ele": "3495",
        "name": "Dôme de la Gandolière",
        "natural": "peak"
      },
      "geometry": {
        "type": "Point",
        "coordinates": [
          6.2672297,
          44.9734211
        ]
      },
      "id": "node/582067045"
    },
    {
      "type": "Feature",
      "properties": {
        "@id": "node/582067054",
        "ele": "3568",
        "name": "Dôme de la Lauze",
        "natural": "peak"
      },
      "geometry": {
        "type": "Point",
        "coordinates": [
          6.2460457,
          44.9971305
        ]
      },
      "id": "node/582067054"
    },
    {
      "type": "Feature",
      "properties": {
        "@id": "node/582067065",
        "ele": "3442",
        "name": "Tête Nord du Replat",
        "natural": "peak",
        "wikidata": "Q32173799"
      },
      "geometry": {
        "type": "Point",
        "coordinates": [
          6.2832789,
          44.9873545
        ]
      },
      "id": "node/582067065"
    },
    {
      "type": "Feature",
      "properties": {
        "@id": "node/582067068",
        "ele": "3583",
        "name": "Pointe Thorant",
        "natural": "peak"
      },
      "geometry": {
        "type": "Point",
        "coordinates": [
          6.2629451,
          44.9959485
        ]
      },
      "id": "node/582067068"
    },
    {
      "type": "Feature",
      "properties": {
        "@id": "node/582067070",
        "ele": "3611",
        "name": "Pointe Dosia",
        "natural": "peak"
      },
      "geometry": {
        "type": "Point",
        "coordinates": [
          6.2671532,
          44.9986204
        ]
      },
      "id": "node/582067070"
    },
    {
      "type": "Feature",
      "properties": {
        "@id": "node/582067078",
        "ele": "3769",
        "name": "Le Râteau - Pic Ouest",
        "natural": "peak"
      },
      "geometry": {
        "type": "Point",
        "coordinates": [
          6.2769173,
          45.0008033
        ]
      },
      "id": "node/582067078"
    },
    {
      "type": "Feature",
      "properties": {
        "@id": "node/582269219",
        "ele": "3145",
        "name": "Pic Est de Combeynot",
        "natural": "peak",
        "wikidata": "Q31646990"
      },
      "geometry": {
        "type": "Point",
        "coordinates": [
          6.4208357,
          45.0155736
        ]
      },
      "id": "node/582269219"
    },
    {
      "type": "Feature",
      "properties": {
        "@id": "node/582269223",
        "ele": "3088",
        "name": "Pic du Lac de Combeynot",
        "natural": "peak",
        "wikidata": "Q30913848"
      },
      "geometry": {
        "type": "Point",
        "coordinates": [
          6.4158124,
          44.9969494
        ]
      },
      "id": "node/582269223"
    },
    {
      "type": "Feature",
      "properties": {
        "@id": "node/593798873",
        "ele": "3586",
        "name": "Roche Émile Pic",
        "natural": "peak"
      },
      "geometry": {
        "type": "Point",
        "coordinates": [
          6.3844992,
          44.955328
        ]
      },
      "id": "node/593798873"
    },
    {
      "type": "Feature",
      "properties": {
        "@id": "node/597203779",
        "ele": "3038",
        "name": "Tête de Couleau",
        "natural": "peak"
      },
      "geometry": {
        "type": "Point",
        "coordinates": [
          6.4547791,
          44.6842873
        ]
      },
      "id": "node/597203779"
    },
    {
      "type": "Feature",
      "properties": {
        "@id": "node/611781337",
        "ele": "3206",
        "name": "Pointe du Dard",
        "natural": "peak",
        "wikidata": "Q3393716"
      },
      "geometry": {
        "type": "Point",
        "coordinates": [
          6.7653601,
          45.3637568
        ]
      },
      "id": "node/611781337"
    },
    {
      "type": "Feature",
      "properties": {
        "@id": "node/613109185",
        "ele": "3057",
        "name": "Pointe de Chevrière",
        "natural": "peak"
      },
      "geometry": {
        "type": "Point",
        "coordinates": [
          6.7119583,
          45.2938863
        ]
      },
      "id": "node/613109185"
    },
    {
      "type": "Feature",
      "properties": {
        "@id": "node/613109380",
        "ele": "3551",
        "name": "Pointe du Génépi",
        "natural": "peak",
        "wikidata": "Q3907112"
      },
      "geometry": {
        "type": "Point",
        "coordinates": [
          6.7344643,
          45.3029949
        ]
      },
      "id": "node/613109380"
    },
    {
      "type": "Feature",
      "properties": {
        "@id": "node/613109394",
        "ele": "3570",
        "name": "Dôme des Nants",
        "natural": "peak",
        "wikidata": "Q2017644"
      },
      "geometry": {
        "type": "Point",
        "coordinates": [
          6.7414594,
          45.3258696
        ]
      },
      "id": "node/613109394"
    },
    {
      "type": "Feature",
      "properties": {
        "@id": "node/613109396",
        "ele": "3586",
        "name": "Dôme de Chasseforêt",
        "natural": "peak",
        "wikidata": "Q1628992"
      },
      "geometry": {
        "type": "Point",
        "coordinates": [
          6.7607046,
          45.3307549
        ]
      },
      "id": "node/613109396"
    },
    {
      "type": "Feature",
      "properties": {
        "@id": "node/613124864",
        "ele": "3361",
        "name": "Dôme des Sonnailles",
        "natural": "peak",
        "wikidata": "Q3045569"
      },
      "geometry": {
        "type": "Point",
        "coordinates": [
          6.745442,
          45.3453667
        ]
      },
      "id": "node/613124864"
    },
    {
      "type": "Feature",
      "properties": {
        "@id": "node/626639517",
        "alt_name": "Pique Longue",
        "ele": "3298",
        "name": "Vignemale",
        "name:an": "Punda de Camachibosa / Viñamala",
        "natural": "peak",
        "prominence": "1025",
        "source:prominence": "3298-2273 (Puerto de Bujaruelo)",
        "wikidata": "Q1348903",
        "wikipedia": "es:Pico Viñamala"
      },
      "geometry": {
        "type": "Point",
        "coordinates": [
          -0.1473437,
          42.773943
        ]
      },
      "id": "node/626639517"
    },
    {
      "type": "Feature",
      "properties": {
        "@id": "node/648758529",
        "ele": "3151",
        "name": "Tête de la Frema",
        "name:fr": "Tête de la Frema",
        "name:it": "Tête de la Frema",
        "natural": "peak",
        "summit:cross": "yes",
        "wikidata": "Q4001285",
        "wikipedia": "it:Tête de la Frema"
      },
      "geometry": {
        "type": "Point",
        "coordinates": [
          6.869905,
          44.537341
        ]
      },
      "id": "node/648758529"
    },
    {
      "type": "Feature",
      "properties": {
        "@id": "node/648758531",
        "description": "la cima con la croce forse non è la più alta (che potrebbe essere 30m più a NW)",
        "ele": "3211",
        "name": "Brec de l'Homme / Tête de l'Homme",
        "name:fr": "Brec de l'Homme",
        "name:it": "Tête de l'Homme",
        "natural": "peak",
        "source": "survey",
        "source_ref": "https://geodesie.ign.fr/fiches/pdf/0419311.pdf",
        "wikidata": "Q4001287",
        "wikipedia": "it:Tête de l'Homme"
      },
      "geometry": {
        "type": "Point",
        "coordinates": [
          6.8732327,
          44.5459864
        ]
      },
      "id": "node/648758531"
    },
    {
      "type": "Feature",
      "properties": {
        "@id": "node/697892282",
        "ele": "3086",
        "name": "Pointe des Estaris",
        "natural": "peak",
        "wikidata": "Q3393694"
      },
      "geometry": {
        "type": "Point",
        "coordinates": [
          6.3418092,
          44.7424605
        ]
      },
      "id": "node/697892282"
    },
    {
      "type": "Feature",
      "properties": {
        "@id": "node/699806197",
        "ele": "3375",
        "name": "Neige de Marie - Rocce Rosse",
        "name:it": "Punta Maria",
        "natural": "peak",
        "note": "Appelation d'après Toponeige. Ne pas confondre avec Pointe Marie un peu plus bas",
        "source": "GPS"
      },
      "geometry": {
        "type": "Point",
        "coordinates": [
          7.1321578,
          45.273673
        ]
      },
      "id": "node/699806197"
    },
    {
      "type": "Feature",
      "properties": {
        "@id": "node/699806208",
        "ele": "3042",
        "name": "Ouille du Midi",
        "natural": "peak",
        "note": "Sommet placé sur le kairn et non sur le repère géodésique à l'autre bout de l'arête (~50m)",
        "source": "GPS",
        "wikidata": "Q31635287"
      },