[
  {
    "name": "Aiguille Centrale d'Arves",
    "ele": 3513,
    "coordinates": [
      6.3364559,
      45.1272656
    ],
    "photoUrl": "https://s2.qwant.com/thumbr/474x266/6/5/6d5643f5a9118738f2574321b60388331ed2f4e026f31faeeae488fd8c3847/th.jpg?u=https%3A%2F%2Ftse.mm.bing.net%2Fth%3Fid%3DOIP.AW1qe_reV7w8gnGNGityrwHaEK%26pid%3DApi&q=0&b=1&p=0&a=0"
  },
  {
    "wikipediaUri": "fr:Aiguille de Chambeyron",
    "name": "Aiguille de Chambeyron",
    "ele": 3412,
    "coordinates": [
      6.8561426,
      44.5476021
    ],
    "photoUrl": ""
  },
  {
    "wikipediaUri": "it:Aiguille de la Grande Sassière",
    "name": "Aiguille de la Grande Sassière",
    "ele": 3747,
    "coordinates": [
      6.9998427,
      45.5049956
    ],
    "photoUrl": ""
  },
  {
    "name": "Aiguille de Péclet",
    "ele": 3561,
    "coordinates": [
      6.6240193,
      45.2813645
    ],
    "photoUrl": ""
  },
  {
    "wikipediaUri": "en:Aiguille Verte",
    "name": "Aiguille Verte",
    "ele": 4121,
    "coordinates": [
      6.97006,
      45.9347326
    ],
    "photoUrl": ""
  },
  {
    "wikipediaUri": "fr:Barre des Écrins",
    "name": "Barre des Écrins",
    "ele": 4102,
    "coordinates": [
      6.359547,
      44.92216
    ],
    "photoUrl": ""
  },
  {
    "wikipediaUri": "it:Cima Mongioia",
    "name": "Bric de Rubren / Cima Mongioia",
    "ele": 3340,
    "coordinates": [
      6.9496597,
      44.6195969
    ],
    "photoUrl": "https://s2.qwant.com/thumbr/474x355/5/2/27cd49d3262547a0d934c3a98c35f01189777e369332b5a7ec9445e849416f/th.jpg?u=https%3A%2F%2Ftse.mm.bing.net%2Fth%3Fid%3DOIP.sBrs4LRuHwleChUa4XgX8QHaFj%26pid%3DApi&q=0&b=1&p=0&a=0"
  },
  {
    "wikipediaUri": "fr:Pic Schrader",
    "name": "Bachimala / Schrader",
    "ele": 3177,
    "coordinates": [
      0.3944255,
      42.6985978
    ],
    "photoUrl": "https://s1.qwant.com/thumbr/300x300/8/b/cac8123826a447843e4579650e87e90284fa1ab1f55c9e9576afe51882c325/th.jpg?u=https%3A%2F%2Ftse.mm.bing.net%2Fth%3Fid%3DOIF.h1%252b0E%252fO0ShZN%252fDkwKUUvRA%26pid%3DApi&q=0&b=1&p=0&a=0"
  },
  {
    "name": "Grand Roc Noir",
    "ele": 3587,
    "coordinates": [
      6.8919412,
      45.3302786
    ],
    "photoUrl": ""
  },
  {
    "wikipediaUri": "it:Punta Walker",
    "name": "Grandes Jorasses / Pointe Walker",
    "ele": 4208,
    "coordinates": [
      6.9889831,
      45.8681562
    ],
    "photoUrl": "https://s1.qwant.com/thumbr/474x267/2/2/6139f7343c5e95f5782b3d64c3cb6f8b61d5532d2855d47e263636bbdae83d/th.jpg?u=https%3A%2F%2Ftse.mm.bing.net%2Fth%3Fid%3DOIP.H57iSQCXj3LB00b_Swly2gHaEL%26pid%3DApi&q=0&b=1&p=0&a=0"
  },
  {
    "name": "L'Ailefroide Occidentale",
    "ele": 3953,
    "coordinates": [
      6.3559521,
      44.884701
    ],
    "photoUrl": "https://s2.qwant.com/thumbr/474x354/6/d/1c255ea6358931a14c7beff661d1b608f58e1976cf103216b4f46ee11c7a92/th.jpg?u=https%3A%2F%2Ftse.mm.bing.net%2Fth%3Fid%3DOIP.p0KYvt50H9Spzi9wzMKZTAHaFi%26pid%3DApi&q=0&b=1&p=0&a=0"
  },
  {
    "name": "La Grande Casse",
    "ele": 3855,
    "coordinates": [
      6.8275635,
      45.4051415
    ],
    "photoUrl": ""
  },
  {
    "wikipediaUri": "fr:La Meije",
    "name": "Grand Pic de la Meije",
    "ele": 3982,
    "coordinates": [
      6.3082538,
      45.005036
    ],
    "photoUrl": "https://s2.qwant.com/thumbr/474x355/c/8/994e4f311f60d68a128544adb1aa707f94dc44ac260e2a8938284d52e28004/th.jpg?u=https%3A%2F%2Ftse.mm.bing.net%2Fth%3Fid%3DOIP.qxEKcN5GG3vw1QeRUD782wHaFj%26pid%3DApi&q=0&b=1&p=0&a=0"
  },
  {
    "name": "Le Grand Bérard",
    "ele": 3048,
    "coordinates": [
      6.6602736,
      44.4497277
    ],
    "photoUrl": "https://s1.qwant.com/thumbr/474x266/9/e/344aa63a82824133d816ea96327aa94e984434dbcf8c9e43416458b54edef0/th.jpg?u=https%3A%2F%2Ftse.mm.bing.net%2Fth%3Fid%3DOIP.WqeH6SPuMJzGYF1UcnWneAHaEK%26pid%3DApi&q=0&b=1&p=0&a=0"
  },
  {
    "name": "Le Grand Galibier",
    "ele": 3228,
    "coordinates": [
      6.4341494,
      45.063891
    ],
    "photoUrl": "https://s2.qwant.com/thumbr/474x355/e/9/ea1422c8d3ead8039a884083aa5724caaa79dadb169acc42579d85f5e6c279/th.jpg?u=https%3A%2F%2Ftse.mm.bing.net%2Fth%3Fid%3DOIP.4Z-Pc9AonWfeWrnnR0qYYgHaFj%26pid%3DApi&q=0&b=1&p=0&a=0"
  },
  {
    "wikipediaUri": "fr:Mont Buet",
    "name": "Mont Buet",
    "ele": 3096,
    "coordinates": [
      6.8525295,
      46.0248299
    ],
    "photoUrl": ""
  },
  {
    "wikipediaUri": "it:Monte Gelàs",
    "name": "Cime du Gélas / Monte Gelàs",
    "ele": 3143,
    "coordinates": [
      7.3842062,
      44.1227794
    ],
    "photoUrl": "https://s1.qwant.com/thumbr/474x355/0/9/5481b331407d469c22832e3513c68d80620c9a63834813cc43ff14b9323b40/th.jpg?u=https%3A%2F%2Ftse.mm.bing.net%2Fth%3Fid%3DOIP.x80QjCA9LLA3rR7kCWmqsQHaFj%26pid%3DApi&q=0&b=1&p=0&a=0"
  },
  {
    "wikipediaUri": "fr:Mont Giusalet",
    "name": "Mont Giusalet",
    "ele": 3313,
    "coordinates": [
      6.93,
      45.1805556
    ],
    "photoUrl": ""
  },
  {
    "wikipediaUri": "fr:Mont Pelat",
    "name": "Mont Pelat",
    "ele": 3050,
    "coordinates": [
      6.7058837,
      44.2650103
    ],
    "photoUrl": ""
  },
  {
    "name": "Pic de Rochebrune",
    "ele": 3320,
    "coordinates": [
      6.7875068,
      44.8222932
    ],
    "photoUrl": ""
  },
  {
    "wikipediaUri": "en:Pic Long",
    "name": "Pic Long",
    "ele": 3192,
    "coordinates": [
      0.1001273,
      42.8008266
    ],
    "photoUrl": ""
  },
  {
    "name": "Pic Ouest de Combeynot",
    "ele": 3155,
    "coordinates": [
      6.4111137,
      45.01258
    ],
    "photoUrl": ""
  },
  {
    "wikipediaUri": "es:Pica d'Estats",
    "name": "Pica d'Estats",
    "ele": 3143,
    "coordinates": [
      1.3978986,
      42.666952
    ],
    "photoUrl": ""
  },
  {
    "name": "Pics de la Font Sancte",
    "ele": 3385,
    "coordinates": [
      6.7995823,
      44.6045737
    ],
    "photoUrl": ""
  },
  {
    "name": "Pointe de l'Aiglière",
    "ele": 3307,
    "coordinates": [
      6.4147136,
      44.8102815
    ],
    "photoUrl": ""
  },
  {
    "name": "Pointe de Malhaubert",
    "ele": 3049,
    "coordinates": [
      6.0325843,
      44.975271
    ],
    "photoUrl": "https://s2.qwant.com/thumbr/474x267/e/4/05b78661b9e7c75a1f03b38af95a30d6420a23de4f7053eb214aa5f197778d/th.jpg?u=https%3A%2F%2Ftse.mm.bing.net%2Fth%3Fid%3DOIP.CGrtnaAFX0H7AOpZrT12aAHaEL%26pid%3DApi&q=0&b=1&p=0&a=0"
  },
  {
    "wikipediaUri": "fr:Roche Bernaude",
    "name": "Rocca Bernauda / Roche Bernaude",
    "ele": 3222,
    "coordinates": [
      6.6274936,
      45.1013915
    ],
    "photoUrl": "https://s1.qwant.com/thumbr/474x355/1/8/018483f3a63ca07ad0ea3306964f2b0988222423b970762eddcea27a91b819/th.jpg?u=https%3A%2F%2Ftse.mm.bing.net%2Fth%3Fid%3DOIP.d2tmITAuKDeKWw6wX5xVigHaFj%26pid%3DApi&q=0&b=1&p=0&a=0"
  },
  {
    "name": "Signal du Petit Mont Cenis",
    "ele": 3163,
    "coordinates": [
      6.8727681,
      45.2442786
    ],
    "photoUrl": "https://s1.qwant.com/thumbr/474x315/a/1/85202a6a8db328094a6551d58a73d867aae17bc9d6ff137f6ebef54502dbb1/th.jpg?u=https%3A%2F%2Ftse.mm.bing.net%2Fth%3Fid%3DOIP.YLUCzG5C-I6j_ZdJQzt02AHaE7%26pid%3DApi&q=0&b=1&p=0&a=0"
  },
  {
    "name": "Sommet de Bellecôte",
    "ele": 3417,
    "coordinates": [
      6.7824968,
      45.4925008
    ],
    "photoUrl": ""
  },
  {
    "name": "Tête de la Courbe",
    "ele": 3089,
    "coordinates": [
      6.823884,
      44.4980593
    ],
    "photoUrl": "https://s2.qwant.com/thumbr/462x401/c/9/71b56e647d6bd5efc31278e6b00e4832869f6205beb38c453c002b696fefa0/th.jpg?u=https%3A%2F%2Ftse.mm.bing.net%2Fth%3Fid%3DOIP.NLrreGtydaGCV9qQVeUbmwHaGb%26pid%3DApi&q=0&b=1&p=0&a=0"
  },
  {
    "wikipediaUri": "ca:Rodó de Canalbona",
    "name": "Pic Rodó de Canalbona",
    "ele": 3004,
    "coordinates": [
      1.4016988,
      42.6625832
    ],
    "photoUrl": "https://s1.qwant.com/thumbr/474x355/2/d/0b124053362cf62afffa795fef2d479d96d7b589fa4a7501da25448a9baf5f/th.jpg?u=https%3A%2F%2Ftse.mm.bing.net%2Fth%3Fid%3DOIP.guAxZEPkY8qZAgXhhnJYoAHaFj%26pid%3DApi&q=0&b=1&p=0&a=0"
  },
  {
    "wikipediaUri": "es:Pico de Sotllo",
    "name": "Pic de Sotllo",
    "ele": 3072,
    "coordinates": [
      1.3874561,
      42.6687125
    ],
    "photoUrl": "https://s1.qwant.com/thumbr/474x322/2/7/c5b63287e3367040fa91e911afcfb9a3c2e55fbade7ac0ac639a8ac2488b09/th.jpg?u=https%3A%2F%2Ftse.mm.bing.net%2Fth%3Fid%3DOIP.DWULmgDnVVEdqka4bpUDlQHaFC%26pid%3DApi&q=0&b=1&p=0&a=0"
  },
  {
    "name": "Punta de l'Abella",
    "ele": 3025,
    "coordinates": [
      0.3928154,
      42.7132443
    ],
    "photoUrl": "https://s1.qwant.com/thumbr/474x353/b/d/60648a62639d824f8b364d5abaacf37eff8b675c97e5cd20d161c58d2e0190/th.jpg?u=https%3A%2F%2Ftse.mm.bing.net%2Fth%3Fid%3DOIP.tLQRlEaTvymJY9_7aLOYIQHaFh%26pid%3DApi&q=0&b=1&p=0&a=0"
  },
  {
    "name": "Le Râteau - Pic Est",
    "ele": 3809,
    "coordinates": [
      6.2829415,
      45.0008085
    ],
    "photoUrl": "https://s1.qwant.com/thumbr/474x316/a/e/5bd2f46586367817ebfd8f304116725d502e116274de034362174104aa5845/th.jpg?u=https%3A%2F%2Ftse.mm.bing.net%2Fth%3Fid%3DOIP.BsVmZOchJD5ukCri9HnAzwHaE8%26pid%3DApi&q=0&b=1&p=0&a=0"
  },
  {
    "wikipediaUri": "en:Aiguille du Midi",
    "name": "Aiguille du Midi",
    "ele": 3842,
    "coordinates": [
      6.8875506,
      45.8787035
    ],
    "photoUrl": ""
  },
  {
    "name": "Pic Blanc",
    "ele": 3323,
    "coordinates": [
      6.1276239,
      45.1251943
    ],
    "photoUrl": ""
  },
  {
    "name": "Dôme de Neige des Écrins",
    "ele": 4015,
    "coordinates": [
      6.3535413,
      44.9243102
    ],
    "photoUrl": ""
  },
  {
    "name": "Le Rateau d'Aussois",
    "ele": 3131,
    "coordinates": [
      6.6938877,
      45.2463525
    ],
    "photoUrl": ""
  },
  {
    "name": "Pointe de l'Observatoire",
    "ele": 3015,
    "coordinates": [
      6.6851397,
      45.2908908
    ],
    "photoUrl": ""
  },
  {
    "wikipediaUri": "fr:Mont Blanc",
    "name": "Mont Blanc / Monte Bianco",
    "ele": 4805,
    "coordinates": [
      6.8650773,
      45.8327682
    ],
    "photoUrl": "https://s2.qwant.com/thumbr/474x347/6/f/a3ca793d1251bab0b004d6219f695ecd1b8b08bf639a0b374f5ca9bbc70152/th.jpg?u=https%3A%2F%2Ftse.mm.bing.net%2Fth%3Fid%3DOIP.Z2uRgR1rSoMss9YJRefwuQHaFb%26pid%3DApi&q=0&b=1&p=0&a=0"
  },
  {
    "name": "Pointe des Sagnes Longues",
    "ele": 3032,
    "coordinates": [
      6.9464662,
      44.6873705
    ],
    "photoUrl": "https://s2.qwant.com/thumbr/474x316/4/5/e774bac63f4c31084ecaec66730da9e95f47ec31a77db0b0a005d25a92386b/th.jpg?u=https%3A%2F%2Ftse.mm.bing.net%2Fth%3Fid%3DOIP.qP8gi0EDgUwfmrw2tjqv_gHaE8%26pid%3DApi&q=0&b=1&p=0&a=0"
  },
  {
    "name": "Aiguille du Tour",
    "ele": 3542,
    "coordinates": [
      7.0100128,
      45.9945308
    ],
    "photoUrl": ""
  },
  {
    "name": "Aiguille Purtscheller",
    "ele": 3478,
    "coordinates": [
      7.012105,
      45.9914303
    ],
    "photoUrl": "https://s2.qwant.com/thumbr/474x631/7/1/535b58c493921ef9211941b7693b632bdbf285822aebd59c37d223e7dd648e/th.jpg?u=https%3A%2F%2Ftse.mm.bing.net%2Fth%3Fid%3DOIP.MyQPtCzdJeyhNRHj4VjaIAHaJ3%26pid%3DApi&q=0&b=1&p=0&a=0"
  },
  {
    "wikipediaUri": "fr:Aiguille du Chardonnet",
    "name": "Aiguille de Chardonnet",
    "ele": 3824,
    "coordinates": [
      7.0015516,
      45.968306
    ],
    "photoUrl": "https://s2.qwant.com/thumbr/474x632/5/9/9f90c0dc9d47e291d2f5451eaf33e275a293eaa1e83e99c2f3ebed0512a35e/th.jpg?u=https%3A%2F%2Ftse.mm.bing.net%2Fth%3Fid%3DOIP.qBN7ZnhGSvRGq5cdPjsfHgHaJ4%26pid%3DApi&q=0&b=1&p=0&a=0"
  },
  {
    "wikipediaUri": "en:Aiguille d'Argentière",
    "name": "Aiguille d'Argentière",
    "ele": 3901,
    "coordinates": [
      7.0199726,
      45.9595589
    ],
    "photoUrl": ""
  },
  {
    "wikipediaUri": "it:Punta Elena",
    "name": "Pointe Hélène / Punta Elena",
    "ele": 4045,
    "coordinates": [
      6.9793403,
      45.8687569
    ],
    "photoUrl": "https://s2.qwant.com/thumbr/474x266/5/c/8ec008bd3e1eace9fafa74c8a43986c3a2d5e8d879902d48c9abe3aa06edb1/th.jpg?u=https%3A%2F%2Ftse.mm.bing.net%2Fth%3Fid%3DOIP.kZtUj0RMEEYikCbU2Pbn9gHaEK%26pid%3DApi&q=0&b=1&p=0&a=0"
  },
  {
    "wikipediaUri": "it:Punta Croz",
    "name": "Pointe Croz / Punta Croz",
    "ele": 4110,
    "coordinates": [
      6.9821345,
      45.8692394
    ],
    "photoUrl": "https://s2.qwant.com/thumbr/474x632/7/3/79ef38354c1efb15e21ebf450d40bec70fd69f43c9461e7297ea62a6c27e74/th.jpg?u=https%3A%2F%2Ftse.mm.bing.net%2Fth%3Fid%3DOIP.BRlfcpYM3HgNFLHzLO79ZwHaJ4%26pid%3DApi&q=0&b=1&p=0&a=0"
  },
  {
    "wikipediaUri": "it:Aiguille de Talèfre",
    "name": "Aiguille de Talèfre",
    "ele": 3730,
    "coordinates": [
      7.0037821,
      45.899499
    ],
    "photoUrl": ""
  },
  {
    "name": "Pointe du Domino / Punta del Domino",
    "ele": 3648,
    "coordinates": [
      7.0310586,
      45.9206211
    ],
    "photoUrl": "https://s2.qwant.com/thumbr/474x476/5/a/4719c3af6bf6e989ece88cd7d05504f7b4dc88aaa1977f411f927b872ba87b/th.jpg?u=https%3A%2F%2Ftse1.explicit.bing.net%2Fth%3Fid%3DOIP.xgf5lNuNq0enF4aQ2ufvMgHaHc%26pid%3DApi&q=0&b=1&p=0&a=0"
  },
  {
    "wikipediaUri": "it:Aiguille des Glaciers",
    "name": "Aiguille des Glaciers",
    "ele": 3815,
    "coordinates": [
      6.802571,
      45.7783901
    ],
    "photoUrl": ""
  },
  {
    "name": "Cime de Caron",
    "ele": 3195,
    "coordinates": [
      6.5609518,
      45.2632226
    ],
    "photoUrl": ""
  },
  {
    "wikipediaUri": "it:Aiguille de Rochefort",
    "name": "Aiguille de Rochefort",
    "ele": 4001,
    "coordinates": [
      6.9599716,
      45.8621023
    ],
    "photoUrl": ""
  },
  {
    "wikipediaUri": "en:Mont Blanc du Tacul",
    "name": "Mont Blanc du Tacul",
    "ele": 4248,
    "coordinates": [
      6.8885201,
      45.8565863
    ],
    "photoUrl": ""
  },
  {
    "wikipediaUri": "en:Aiguille du Plan",
    "name": "Aiguille du Plan",
    "ele": 3673,
    "coordinates": [
      6.9064682,
      45.8913485
    ],
    "photoUrl": ""
  },
  {
    "wikipediaUri": "en:Aiguille de Blaitière",
    "name": "Aiguille de Blaitière",
    "ele": 3522,
    "coordinates": [
      6.9133265,
      45.8989201
    ],
    "photoUrl": ""
  },
  {
    "name": "Grand Dru",
    "ele": 3754,
    "coordinates": [
      6.9561711,
      45.9319514
    ],
    "photoUrl": ""
  },
  {
    "wikipediaUri": "en:Les Droites",
    "name": "Les Droites",
    "ele": 4000,
    "coordinates": [
      6.9893056,
      45.9306841
    ],
    "photoUrl": ""
  },
  {
    "wikipediaUri": "fr:Aiguille du Tacul",
    "name": "Aiguille du Tacul",
    "ele": 3444,
    "coordinates": [
      6.9607788,
      45.884347
    ],
    "photoUrl": ""
  },
  {
    "name": "Grande Aiguille de la Bérarde",
    "ele": 3417,
    "coordinates": [
      6.2780427,
      44.9168928
    ],
    "photoUrl": ""
  },
  {
    "name": "Tête de l'Étret",
    "ele": 3563,
    "coordinates": [
      6.2449979,
      44.8897033
    ],
    "photoUrl": ""
  },
  {
    "name": "Pointe du Vallon des Etages",
    "ele": 3564,
    "coordinates": [
      6.2671851,
      44.8848152
    ],
    "photoUrl": "https://s1.qwant.com/thumbr/474x355/3/4/1273ee24e86eeaa8feee1fc5c19558873ef9bd45d874ebdcfba13ac4dcac60/th.jpg?u=https%3A%2F%2Ftse.mm.bing.net%2Fth%3Fid%3DOIP.gb2gu4c_hmBJA1fhQA_AigHaFj%26pid%3DApi&q=0&b=1&p=0&a=0"
  },
  {
    "name": "Le Plaret",
    "ele": 3563,
    "coordinates": [
      6.2592473,
      44.9684719
    ],
    "photoUrl": ""
  },
  {
    "name": "Mont Pelvoux Pointe Durand",
    "ele": 3932,
    "coordinates": [
      6.4007544,
      44.8987086
    ],
    "photoUrl": "https://s2.qwant.com/thumbr/474x355/c/5/5bcdffb81c8930ad4ca45d0204487461cf91c40143adab8069736511a7435e/th.jpg?u=https%3A%2F%2Ftse.mm.bing.net%2Fth%3Fid%3DOIP.fbpX2EZ7MLzhCkrfkdVwOAAAAA%26pid%3DApi&q=0&b=1&p=0&a=0"
  },
  {
    "name": "Mont Pelvoux Pointe Puiseux",
    "ele": 3943,
    "coordinates": [
      6.3959542,
      44.8972813
    ],
    "photoUrl": "https://s2.qwant.com/thumbr/474x355/c/5/5bcdffb81c8930ad4ca45d0204487461cf91c40143adab8069736511a7435e/th.jpg?u=https%3A%2F%2Ftse.mm.bing.net%2Fth%3Fid%3DOIP.fbpX2EZ7MLzhCkrfkdVwOAAAAA%26pid%3DApi&q=0&b=1&p=0&a=0"
  },
  {
    "name": "Petit Pelvoux",
    "ele": 3753,
    "coordinates": [
      6.4093996,
      44.8944244
    ],
    "photoUrl": ""
  },
  {
    "name": "Pic Bourcet",
    "ele": 3697,
    "coordinates": [
      6.3230041,
      44.962013
    ],
    "photoUrl": "https://s2.qwant.com/thumbr/400x379/6/9/d77d10bb77e16440bf68f8ebad23378920f55af94fc027dac1a76d68f5099d/th.jpg?u=https%3A%2F%2Ftse.mm.bing.net%2Fth%3Fid%3DOIP.AxK2UUleCiYlS5zYFe7iYwAAAA%26pid%3DApi&q=0&b=1&p=0&a=0"
  },
  {
    "name": "Grand Roc",
    "ele": 3316,
    "coordinates": [
      6.6882491,
      45.265387
    ],
    "photoUrl": ""
  },
  {
    "wikipediaUri": "fr:Mont Tondu",
    "name": "Mont Tondu",
    "ele": 3192,
    "coordinates": [
      6.7553564,
      45.7635198
    ],
    "photoUrl": ""
  },
  {
    "wikipediaUri": "it:Aiguille de Bionnassay",
    "name": "Aiguille de Bionnassay",
    "ele": 4052,
    "coordinates": [
      6.8186739,
      45.836054
    ],
    "photoUrl": ""
  },
  {
    "wikipediaUri": "en:Aiguille des Grands Charmoz",
    "name": "Aiguille des Grands Charmoz",
    "ele": 3445,
    "coordinates": [
      6.9188413,
      45.9042308
    ],
    "photoUrl": ""
  },
  {
    "wikipediaUri": "fr:Dent du Requin",
    "name": "Dent du Requin",
    "ele": 3422,
    "coordinates": [
      6.9174277,
      45.8873048
    ],
    "photoUrl": ""
  },
  {
    "wikipediaUri": "fr:Les Périades",
    "name": "Les Périades",
    "ele": 3503,
    "coordinates": [
      6.9621884,
      45.8809491
    ],
    "photoUrl": ""
  },
  {
    "wikipediaUri": "fr:Aiguille du Moine",
    "name": "Aiguille du Moine",
    "ele": 3412,
    "coordinates": [
      6.9605217,
      45.916786
    ],
    "photoUrl": ""
  },
  {
    "wikipediaUri": "fr:Mont Mallet",
    "name": "Mont Mallet",
    "ele": 3970,
    "coordinates": [
      6.9616216,
      45.8657449
    ],
    "photoUrl": ""
  },
  {
    "wikipediaUri": "it:Grand Flambeau",
    "name": "Grand Flambeau",
    "ele": 3569,
    "coordinates": [
      6.9281489,
      45.8479178
    ],
    "photoUrl": "https://s2.qwant.com/thumbr/474x474/6/0/17e3be1da27e0bdc592517a8d3ad6be2de0206ec02417957cbe4ea811eb4c3/th.jpg?u=https%3A%2F%2Ftse2.explicit.bing.net%2Fth%3Fid%3DOIP.h5lkTlOSw5iInqsK0O-cxwHaHa%26pid%3DApi&q=0&b=1&p=0&a=0"
  },
  {
    "wikipediaUri": "en:Dômes de Miage",
    "name": "Dômes de Miage",
    "ele": 3673,
    "coordinates": [
      6.8002767,
      45.8152681
    ],
    "photoUrl": ""
  },
  {
    "name": "Tête Carrée",
    "ele": 3752,
    "coordinates": [
      6.811815,
      45.8017236
    ],
    "photoUrl": ""
  },
  {
    "name": "Aiguille de la Bérangère",
    "ele": 3425,
    "coordinates": [
      6.7787895,
      45.8027724
    ],
    "photoUrl": "https://s1.qwant.com/thumbr/474x355/1/d/f0ddba224203205165f1387fa73b5f11e9a19a5a9bcb89d9c595552b72af0f/th.jpg?u=https%3A%2F%2Ftse.mm.bing.net%2Fth%3Fid%3DOIP._VHMLsq6FEFEaaRN6246JAHaFj%26pid%3DApi&q=0&b=1&p=0&a=0"
  },
  {
    "wikipediaUri": "en:Grand Capucin",
    "name": "Le Grand Capucin",
    "ele": 3838,
    "coordinates": [
      6.8997785,
      45.8520297
    ],
    "photoUrl": "https://s1.qwant.com/thumbr/474x355/3/4/26861cc958483102ff2b8dfb3bb2b4329875a3423ac693fc13ded7fe4f1a65/th.jpg?u=https%3A%2F%2Ftse.mm.bing.net%2Fth%3Fid%3DOIP.ZoXeyVkdE8r6GsdLQyulnQHaFj%26pid%3DApi&q=0&b=1&p=0&a=0"
  },
  {
    "name": "Pic de la Pyramide",
    "ele": 3382,
    "coordinates": [
      6.1293104,
      45.1327023
    ],
    "photoUrl": "https://s1.qwant.com/thumbr/474x315/0/0/fb0d04ffa81e25587703d8c4d984c2ff8cc061fe85e523ce89111a5e2f56f0/th.jpg?u=https%3A%2F%2Ftse.mm.bing.net%2Fth%3Fid%3DOIP.QmPxMVxNcnAuZxCn_d62zwHaE7%26pid%3DApi&q=0&b=1&p=0&a=0"
  },
  {
    "name": "Pic de l'Herpie",
    "ele": 3012,
    "coordinates": [
      6.1160766,
      45.1095625
    ],
    "photoUrl": ""
  },
  {
    "name": "Le Cardinal",
    "ele": 3638,
    "coordinates": [
      6.9653994,
      45.9278286
    ],
    "photoUrl": ""
  },
  {
    "name": "L'Évêque",
    "ele": 3469,
    "coordinates": [
      6.9619797,
      45.9239521
    ],
    "photoUrl": ""
  },
  {
    "name": "La Nonne",
    "ele": 3341,
    "coordinates": [
      6.9607303,
      45.9200315
    ],
    "photoUrl": ""
  },
  {
    "name": "AIguille Occidentale de la Saussaz",
    "ele": 3340,
    "coordinates": [
      6.3138338,
      45.1118228
    ],
    "photoUrl": "https://s2.qwant.com/thumbr/474x355/c/c/2fc82468efd85bc3471dac9e19d4182813fbf5f46be1974afe6680f12b3a07/th.jpg?u=https%3A%2F%2Ftse.mm.bing.net%2Fth%3Fid%3DOIP.qo79Y2ocKZ2FI4rdsxLcpQHaFj%26pid%3DApi&q=0&b=1&p=0&a=0"
  },
  {
    "name": "Aiguille Méridionale d'Arves",
    "ele": 3514,
    "coordinates": [
      6.3352834,
      45.1224578
    ],
    "photoUrl": "https://s1.qwant.com/thumbr/474x221/b/0/5ca3a0a10310450746b09794a283bafaec73bcb4641a9b49ae51aca8cbd935/th.jpg?u=https%3A%2F%2Ftse.mm.bing.net%2Fth%3Fid%3DOIP.H4u_6UoRR-v4_EqCgbcHIQHaDd%26pid%3DApi&q=0&b=1&p=0&a=0"
  },
  {
    "name": "Bec de l'Homme",
    "ele": 3454,
    "coordinates": [
      6.3299734,
      45.0163178
    ],
    "photoUrl": "https://s1.qwant.com/thumbr/474x355/1/4/b6ad09fddf4829b750deb53b91bfb5027fda02411636c60c291f37a1a5cdc0/th.jpg?u=https%3A%2F%2Ftse.mm.bing.net%2Fth%3Fid%3DOIP.90tzZB9mrHDUp9OSvZmL2QHaFj%26pid%3DApi&q=0&b=1&p=0&a=0"
  },
  {
    "name": "Doigt de Dieu",
    "ele": 3973,
    "coordinates": [
      6.3136876,
      45.0041641
    ],
    "photoUrl": "https://s2.qwant.com/thumbr/474x316/5/2/6fe927de302d7ae8fe3de7a0993e5cf8462aead98dec1f1f4a1cd17d921ddd/th.jpg?u=https%3A%2F%2Ftse.mm.bing.net%2Fth%3Fid%3DOIP.hmkFdzUYSdL1I1Anp-1BVwHaE8%26pid%3DApi&q=0&b=1&p=0&a=0"
  },
  {
    "name": "Pic du Glacier Carré",
    "ele": 3862,
    "coordinates": [
      6.3060385,
      45.0044304
    ],
    "photoUrl": "https://s1.qwant.com/thumbr/474x474/2/f/8e88cfa7afb8f89ebdb0d31bfaa19ea687b416d184fadbb4b9490fcb3482e8/th.jpg?u=https%3A%2F%2Ftse.mm.bing.net%2Fth%3Fid%3DOIP.-d64yMACfCskzmIRs8CKgwHaHa%26pid%3DApi&q=0&b=1&p=0&a=0"
  },
  {
    "name": "Le Grand Doigt",
    "ele": 3764,
    "coordinates": [
      6.3029383,
      45.0036931
    ],
    "photoUrl": "https://s1.qwant.com/thumbr/474x316/3/2/9301745ec60d24a612350947db29f0290306e85e05ec8a5eefed72c70c2398/th.jpg?u=https%3A%2F%2Ftse.mm.bing.net%2Fth%3Fid%3DOIP.k9l1_GF7PQ8btCM14ks-fwHaE8%26pid%3DApi&q=0&b=1&p=0&a=0"
  },
  {
    "name": "Roche Noire",
    "ele": 3067,
    "coordinates": [
      6.5389295,
      45.1454456
    ],
    "photoUrl": "https://s1.qwant.com/thumbr/474x355/8/b/e16515125f236695c8b978ea1d59997b05124aefe1f897108b27538434c470/th.jpg?u=https%3A%2F%2Ftse.mm.bing.net%2Fth%3Fid%3DOIP.wo9qWqkNBJfmYUdfmq7wKwHaFj%26pid%3DApi&q=0&b=1&p=0&a=0"
  },
  {
    "name": "Pic du Thabor",
    "ele": 3207,
    "coordinates": [
      6.5619384,
      45.1187033
    ],
    "photoUrl": ""
  },
  {
    "wikipediaUri": "fr:Mont Thabor (France)",
    "name": "Mont Thabor",
    "ele": 3178,
    "coordinates": [
      6.5637534,
      45.114076
    ],
    "photoUrl": ""
  },
  {
    "name": "Mont de Gébroulaz",
    "ele": 3511,
    "coordinates": [
      6.6293963,
      45.2747423
    ],
    "photoUrl": ""
  },
  {
    "name": "Rocher de l'Encoula",
    "ele": 3538,
    "coordinates": [
      6.2817764,
      44.906702
    ],
    "photoUrl": "https://s2.qwant.com/thumbr/474x355/7/d/d70c55ceec8badec15540fe49a7b68b05c48437e10088419e8a6dea9b42dea/th.jpg?u=https%3A%2F%2Ftse.mm.bing.net%2Fth%3Fid%3DOIP.eUDnE_K1Zgfie6Ofw2xWhwHaFj%26pid%3DApi&q=0&b=1&p=0&a=0"
  },
  {
    "name": "Cime de Clot Châtel",
    "ele": 3563,
    "coordinates": [
      6.2800469,
      44.8972126
    ],
    "photoUrl": "https://s2.qwant.com/thumbr/474x355/5/3/3a4c146a6a54b5d9475a0069e5e939ff294321a468bf21fc5d76ffa5f030f3/th.jpg?u=https%3A%2F%2Ftse.mm.bing.net%2Fth%3Fid%3DOIP.3ZQ1j1v32nlI-XHOLRAhLQHaFj%26pid%3DApi&q=0&b=1&p=0&a=0"
  },
  {
    "name": "Tête de l'Ours",
    "ele": 3045,
    "coordinates": [
      6.2342261,
      44.9193473
    ],
    "photoUrl": "https://s1.qwant.com/thumbr/474x340/0/0/5ec2b415c960a8458b41326a5295a519cc1e605919a397b327737e3c874669/th.jpg?u=https%3A%2F%2Ftse.mm.bing.net%2Fth%3Fid%3DOIP.3HmylKSH4x2Mng8-0q_h2AHaFU%26pid%3DApi&q=0&b=1&p=0&a=0"
  },
  {
    "name": "Pointe Jeanne",
    "ele": 3245,
    "coordinates": [
      6.2363503,
      44.9082007
    ],
    "photoUrl": "https://s2.qwant.com/thumbr/474x355/6/9/a07e0590e9e0972ac12266ac069251624b788d62fe0f36d85f7820e27d3498/th.jpg?u=https%3A%2F%2Ftse.mm.bing.net%2Fth%3Fid%3DOIP._XXK0qCZ3N3-U7d5SsJyLQHaFj%26pid%3DApi&q=0&b=1&p=0&a=0"
  },
  {
    "name": "Tête des Fétoules",
    "ele": 3459,
    "coordinates": [
      6.2370618,
      44.8998932
    ],
    "photoUrl": ""
  },
  {
    "name": "Pointe de la Muande",
    "ele": 3319,
    "coordinates": [
      6.2532172,
      44.855063
    ],
    "photoUrl": "https://s1.qwant.com/thumbr/474x316/8/e/9c0f85e9c893d48a1654d1f59b77c570b6198810b1ece038590ec3fc4f8849/th.jpg?u=https%3A%2F%2Ftse.mm.bing.net%2Fth%3Fid%3DOIP.IxZ3xB3Amg8kmdEyRS91fwHaE8%26pid%3DApi&q=0&b=1&p=0&a=0"
  },
  {
    "name": "Tête de Lauranoure",
    "ele": 3341,
    "coordinates": [
      6.1510908,
      44.9261398
    ],
    "photoUrl": ""
  },
  {
    "name": "Tête du Salude",
    "ele": 3231,
    "coordinates": [
      6.1474513,
      44.9148988
    ],
    "photoUrl": "https://s2.qwant.com/thumbr/474x316/e/7/f2d607f85aef9e60daa904c0e3cc3748928efbef9f25bb79603f6c19a2d64c/th.jpg?u=https%3A%2F%2Ftse.mm.bing.net%2Fth%3Fid%3DOIP.ME76WyEKYD3slv3gE4J3LQHaE8%26pid%3DApi&q=0&b=1&p=0&a=0"
  },
  {
    "name": "Tête de la Marsare",
    "ele": 3118,
    "coordinates": [
      6.2145819,
      44.9511728
    ],
    "photoUrl": "https://s1.qwant.com/thumbr/474x355/1/2/e5daeb318fbab2be88043b3faf3033d0e50aeccd477ba21ce755eb8f331a0d/th.jpg?u=https%3A%2F%2Ftse.mm.bing.net%2Fth%3Fid%3DOIP.uJ5mzZnQ5NSpGK3QxmyzLAHaFj%26pid%3DApi&q=0&b=1&p=0&a=0"
  },
  {
    "name": "Tête du Graou",
    "ele": 3168,
    "coordinates": [
      6.2149683,
      44.9566935
    ],
    "photoUrl": "https://s2.qwant.com/thumbr/474x311/e/4/3687c6f51c40071510a9196bc54f345dabda1b596fd745d12b0755721f9335/th.jpg?u=https%3A%2F%2Ftse.mm.bing.net%2Fth%3Fid%3DOIP.kDRBsoF4RBEeyHiaqKkJ1AHaE3%26pid%3DApi&q=0&b=1&p=0&a=0"
  },
  {
    "name": "Tête de la Gandolière",
    "ele": 3542,
    "coordinates": [
      6.2710489,
      44.9742415
    ],
    "photoUrl": ""
  },
  {
    "wikipediaUri": "fr:Pic de la Grave",
    "name": "Pic de la Grave",
    "ele": 3669,
    "coordinates": [
      6.2541959,
      44.9952379
    ],
    "photoUrl": ""
  },
  {
    "name": "Le Jandri",
    "ele": 3292,
    "coordinates": [
      6.2044788,
      44.9927481
    ],
    "photoUrl": "https://s1.qwant.com/thumbr/474x323/1/9/c6f82e573573a520ed18b058a05fd9b9fd6d2743e9713de8d8880f3b7e75be/th.jpg?u=https%3A%2F%2Ftse.mm.bing.net%2Fth%3Fid%3DOIP.N04E3lIs-d6FMqkSCuo2XgHaFD%26pid%3DApi&q=0&b=1&p=0&a=0"
  },
  {
    "name": "Tête Sud du Replat",
    "ele": 3428,
    "coordinates": [
      6.2791448,
      44.9837595
    ],
    "photoUrl": ""
  },
  {
    "name": "Le Pave",
    "ele": 3831,
    "coordinates": [
      6.32452,
      44.99867
    ],
    "photoUrl": "https://s1.qwant.com/thumbr/474x355/1/e/400c5f4a21fa69d797aef1f655e9f12b615e2b5424d76c8cd231d3648c6361/th.jpg?u=https%3A%2F%2Ftse.mm.bing.net%2Fth%3Fid%3DOIP.pt6feJXXefwBoh7nf_76mgHaFj%26pid%3DApi&q=0&b=1&p=0&a=0"
  },
  {
    "wikipediaUri": "fr:Pic Gaspard",
    "name": "Pic Gaspard",
    "ele": 3882,
    "coordinates": [
      6.3305818,
      44.9978931
    ],
    "photoUrl": ""
  },
  {
    "name": "Pointe Nérot",
    "ele": 3537,
    "coordinates": [
      6.3523292,
      44.9997419
    ],
    "photoUrl": "https://s2.qwant.com/thumbr/474x315/c/c/b7df0151d5a83603681d75f56f308be0779613c55b8839b92b07addc160da1/th.jpg?u=https%3A%2F%2Ftse.mm.bing.net%2Fth%3Fid%3DOIP.LahDHXRGCuXoxMjvwalscgHaE7%26pid%3DApi&q=0&b=1&p=0&a=0"
  },
  {
    "name": "Roc Noir de Combeynot",
    "ele": 3118,
    "coordinates": [
      6.4016875,
      45.0113503
    ],
    "photoUrl": "https://s2.qwant.com/thumbr/474x355/f/b/d0c959d951829ceadd15e5a826b7edbd940dcd58f034b48b5bff8fc2a8b995/th.jpg?u=https%3A%2F%2Ftse.mm.bing.net%2Fth%3Fid%3DOIP.o4grNXviVOlf_b5UKZkjAgHaFj%26pid%3DApi&q=0&b=1&p=0&a=0"
  },
  {
    "name": "La Grande Ruine",
    "ele": 3765,
    "coordinates": [
      6.3292408,
      44.9675913
    ],
    "photoUrl": "https://s2.qwant.com/thumbr/474x317/e/f/e67e2b326eeb91b07a48aa5c79200382cf04d925256870bad9e7303facf751/th.jpg?u=https%3A%2F%2Ftse.mm.bing.net%2Fth%3Fid%3DOIP.KVfei4fo_fqJddQrcvo_WQHaE9%26pid%3DApi&q=0&b=1&p=0&a=0"
  },
  {
    "name": "Roche Méane",
    "ele": 3712,
    "coordinates": [
      6.3352127,
      44.97025
    ],
    "photoUrl": ""
  },
  {
    "name": "Pics des Cavales",
    "ele": 3309,
    "coordinates": [
      6.3236617,
      44.971247
    ],
    "photoUrl": "https://s2.qwant.com/thumbr/474x474/e/7/7bca7d6f585ae363879edf35da662dd0e609b35621e2fc0f5c78bee33991ef/th.jpg?u=https%3A%2F%2Ftse.mm.bing.net%2Fth%3Fid%3DOIP.ZgDQ9hhhy24oXNyo4363GQHaHa%26pid%3DApi&q=0&b=1&p=0&a=0"
  },
  {
    "name": "Pointe Emma",
    "ele": 3300,
    "coordinates": [
      6.316924,
      44.9848649
    ],
    "photoUrl": "https://s1.qwant.com/thumbr/474x379/b/e/6427736e844d380ca61008f80099a73e8e8b18c5ac748a651bd9297922e82e/th.jpg?u=https%3A%2F%2Ftse.mm.bing.net%2Fth%3Fid%3DOIP.wLq6yERNWEnxM9SxfLB8OAHaF7%26pid%3DApi&q=0&b=1&p=0&a=0"
  },
  {
    "name": "Tête de Charrière",
    "ele": 3442,
    "coordinates": [
      6.3231039,
      44.9546248
    ],
    "photoUrl": "https://s1.qwant.com/thumbr/474x302/8/e/d75e31eaadb1e00f2543f172d57b7d00bf4d81736e1ae8f2f4e5a21c71948a/th.jpg?u=https%3A%2F%2Ftse.mm.bing.net%2Fth%3Fid%3DOIP.3d9g9z3z5pbBArCOSV9GdQHaEu%26pid%3DApi&q=0&b=1&p=0&a=0"
  },
  {
    "name": "Sommet Sud-Est de la Roche d'Alveau",
    "ele": 3534,
    "coordinates": [
      6.3434886,
      44.9437379
    ],
    "photoUrl": "https://s1.qwant.com/thumbr/474x355/1/5/40a2440ee0b92bdf8e1c3e5b1df710d56c44c7dbf0d8f06321521f6031d10b/th.jpg?u=https%3A%2F%2Ftse.mm.bing.net%2Fth%3Fid%3DOIP.fl80jAquAWvKP4bccskhqwHaFj%26pid%3DApi&q=0&b=1&p=0&a=0"
  },
  {
    "name": "Pic de Neige Cordier",
    "ele": 3613,
    "coordinates": [
      6.3890661,
      44.9560656
    ],
    "photoUrl": ""
  },
  {
    "name": "Pic d'Arsine",
    "ele": 3240,
    "coordinates": [
      6.3876436,
      44.9644269
    ],
    "photoUrl": "https://s1.qwant.com/thumbr/474x316/a/4/41ec156f6b10bafa0f60d84d6014632696358595ed8a7a36633b005991e774/th.jpg?u=https%3A%2F%2Ftse.mm.bing.net%2Fth%3Fid%3DOIP.Dk2JQE148huDQvwlACbh_QHaE8%26pid%3DApi&q=0&b=1&p=0&a=0"
  },
  {
    "name": "Pic du Dragon",
    "ele": 3188,
    "coordinates": [
      6.3868504,
      44.9686089
    ],
    "photoUrl": "https://s1.qwant.com/thumbr/474x474/b/a/afd89b5d4cf90554f362a42af3f8f83e32ad2d2577890068ffa98f0de57b5b/th.jpg?u=https%3A%2F%2Ftse.mm.bing.net%2Fth%3Fid%3DOIP.ynVNyKEI_51-AItmDuReHAHaHa%26pid%3DApi&q=0&b=1&p=0&a=0"
  },
  {
    "name": "Dôme de Monêtier",
    "ele": 3320,
    "coordinates": [
      6.4525231,
      44.9307398
    ],
    "photoUrl": ""
  },
  {
    "name": "Pic du Rif",
    "ele": 3478,
    "coordinates": [
      6.446214,
      44.9294782
    ],
    "photoUrl": "https://s1.qwant.com/thumbr/474x355/b/3/12744a7d03b3d30fd16feee4689b6c73840f75f6902207ddfe19fcdbedc611/th.jpg?u=https%3A%2F%2Ftse.mm.bing.net%2Fth%3Fid%3DOIP.mEEafGOeHTONgIuFHtqIWwHaFj%26pid%3DApi&q=0&b=1&p=0&a=0"
  },
  {
    "name": "Pointe des Arcas",
    "ele": 3480,
    "coordinates": [
      6.4469128,
      44.9283522
    ],
    "photoUrl": ""
  },
  {
    "name": "Pic de Clouzis",
    "ele": 3465,
    "coordinates": [
      6.4608192,
      44.91992
    ],
    "photoUrl": "https://s2.qwant.com/thumbr/474x316/f/a/e3e317e55c8bb78903af82e15704efac96c1db0e7055e02cf01d91059767b3/th.jpg?u=https%3A%2F%2Ftse.mm.bing.net%2Fth%3Fid%3DOIP.HDxuGH4rD0dPDlGJyggOEwHaE8%26pid%3DApi&q=0&b=1&p=0&a=0"
  },
  {
    "name": "Pic de Coste Vieille",
    "ele": 3139,
    "coordinates": [
      6.4634799,
      44.9124097
    ],
    "photoUrl": "https://s2.qwant.com/thumbr/474x355/c/7/dac66245a16748ed5cbd3fa0f70abc31d9cb5a45b8d0581cd1720418d0bc93/th.jpg?u=https%3A%2F%2Ftse.mm.bing.net%2Fth%3Fid%3DOIP.FIv2BXqpAtm9adZPfsYBIgHaFj%26pid%3DApi&q=0&b=1&p=0&a=0"
  },
  {
    "name": "Aiguille des Frères Estiennes",
    "ele": 3025,
    "coordinates": [
      6.4635658,
      44.9083329
    ],
    "photoUrl": "https://s1.qwant.com/thumbr/474x313/a/d/58a72ecb15c4fb28258c1f3e9d8821b6282c5b356246f0fe452a12d841aaa4/th.jpg?u=https%3A%2F%2Ftse.mm.bing.net%2Fth%3Fid%3DOIP.dTm8s8jj1nM3cQPdj9nu7QHaE5%26pid%3DApi&q=0&b=1&p=0&a=0"
  },
  {
    "name": "Tête de Chéret",
    "ele": 3159,
    "coordinates": [
      6.3117956,
      44.8883195
    ],
    "photoUrl": "https://s2.qwant.com/thumbr/474x348/d/4/6536638e4ed564d4ec96aac97349119387fbfaa82a1d62beb0fc89843bbc29/th.jpg?u=https%3A%2F%2Ftse.mm.bing.net%2Fth%3Fid%3DOIP.Si2G3ogeu0oQ57xKnTVieQHaFc%26pid%3DApi&q=0&b=1&p=0&a=0"
  },
  {
    "name": "Pics du Says",
    "ele": 3409,
    "coordinates": [
      6.3039207,
      44.8729709
    ],
    "photoUrl": ""
  },
  {
    "name": "Mont Gioberney",
    "ele": 3350,
    "coordinates": [
      6.3173525,
      44.861586
    ],
    "photoUrl": ""
  },
  {
    "name": "Pointe Richardson",
    "ele": 3350,
    "coordinates": [
      6.3201176,
      44.8570584
    ],
    "photoUrl": ""
  },
  {
    "name": "Sommet Sud des Bans",
    "ele": 3669,
    "coordinates": [
      6.3361499,
      44.8488711
    ],
    "photoUrl": "https://s1.qwant.com/thumbr/474x355/b/e/7993c17429a2b40e13242e1042c44c977dcc11318a7ccf8a105da7f36a5b50/th.jpg?u=https%3A%2F%2Ftse.mm.bing.net%2Fth%3Fid%3DOIP.KpkAkOh83IyLnuej0fWw_QHaFj%26pid%3DApi&q=0&b=1&p=0&a=0"
  },
  {
    "name": "Cime du Coin",
    "ele": 3527,
    "coordinates": [
      6.3507842,
      44.8734342
    ],
    "photoUrl": "https://s2.qwant.com/thumbr/474x316/d/a/714f6a9eda3230783b9950d99a79769542e82f1aa1010481f122f059fd0c49/th.jpg?u=https%3A%2F%2Ftse.mm.bing.net%2Fth%3Fid%3DOIP.SowsCTT8pBjfkME0mkRwfwHaE8%26pid%3DApi&q=0&b=1&p=0&a=0"
  },
  {
    "name": "Aiguille du Canard",
    "ele": 3266,
    "coordinates": [
      6.179552,
      44.8997499
    ],
    "photoUrl": "https://s2.qwant.com/thumbr/474x309/e/9/fa63b3fa7cd7ea4ae7ca817322fa3367b10408e4095e27155105d1701b443b/th.jpg?u=https%3A%2F%2Ftse.mm.bing.net%2Fth%3Fid%3DOIP.cw3bU8f_wadhbeJBetR6yAHaE1%26pid%3DApi&q=0&b=1&p=0&a=0"
  },
  {
    "name": "Pointe de la Mariande",
    "ele": 3151,
    "coordinates": [
      6.1477088,
      44.9011691
    ],
    "photoUrl": "https://s2.qwant.com/thumbr/474x390/d/b/e489116fc17ea97c5fc20c3b450d23eed72bcbc7ff189a8df73a9a267cc00f/th.jpg?u=https%3A%2F%2Ftse.mm.bing.net%2Fth%3Fid%3DOIP.Q-8Me5hGhbEDIwE8Wl7tkwHaGG%26pid%3DApi&q=0&b=1&p=0&a=0"
  },
  {
    "name": "Pointe du Grand Vallon",
    "ele": 3137,
    "coordinates": [
      6.1654758,
      44.896445
    ],
    "photoUrl": "https://s1.qwant.com/thumbr/474x266/0/7/2f50f42fbe68975f69e3f72cebfb641aed5231408943c759530333ed68a747/th.jpg?u=https%3A%2F%2Ftse.mm.bing.net%2Fth%3Fid%3DOIP.7iN5qlkxafWWuXUI_gyz8AHaEK%26pid%3DApi&q=0&b=1&p=0&a=0"
  },
  {
    "name": "Pointe Swan",
    "ele": 3300,
    "coordinates": [
      6.1148357,
      44.9080753
    ],
    "photoUrl": "https://s2.qwant.com/thumbr/474x398/7/7/be894a2dcbb73eac7d9207abc75377f202cf45f93865ca8ac3f8266f4c8b77/th.jpg?u=https%3A%2F%2Ftse.mm.bing.net%2Fth%3Fid%3DOIP.wGv6ljjuJBA7VRBRwvcG3wHaGO%26pid%3DApi&q=0&b=1&p=0&a=0"
  },
  {
    "name": "Pointe Marguerite",
    "ele": 3251,
    "coordinates": [
      6.1121749,
      44.914856
    ],
    "photoUrl": ""
  },
  {
    "name": "Le Petit Roux",
    "ele": 3034,
    "coordinates": [
      6.1164664,
      44.9404329
    ],
    "photoUrl": "https://s1.qwant.com/thumbr/474x267/a/a/9ce7ade8e3a88cc794877a559128ab0682dd2743ff101c2adda52fbb85490b/th.jpg?u=https%3A%2F%2Ftse.mm.bing.net%2Fth%3Fid%3DOIP.fBJSb_qKdEAi0CP5f9QY_AHaEL%26pid%3DApi&q=0&b=1&p=0&a=0"
  },
  {
    "name": "Cîme du Montagnon",
    "ele": 3263,
    "coordinates": [
      6.1454557,
      44.9097989
    ],
    "photoUrl": "https://s2.qwant.com/thumbr/474x355/f/5/aa8e703cf4600403bb9cc793f71a3f2ac8582c68450359370bc49b37490eae/th.jpg?u=https%3A%2F%2Ftse.mm.bing.net%2Fth%3Fid%3DOIP.4hjR_qrWDZsMjbcZ7G6keAHaFj%26pid%3DApi&q=0&b=1&p=0&a=0"
  },
  {
    "name": "Aiguille des Arias",
    "ele": 3400,
    "coordinates": [
      6.1710548,
      44.8943971
    ],
    "photoUrl": ""
  },
  {
    "name": "Aiguille d'Entre-Pierroux",
    "ele": 3290,
    "coordinates": [
      6.1772271,
      44.8901322
    ],
    "photoUrl": "https://s2.qwant.com/thumbr/474x266/6/b/a2bb31ba7e21c42671eabb323daf5e0318fde374923cb4806e82dd02cbb7a4/th.jpg?u=https%3A%2F%2Ftse.mm.bing.net%2Fth%3Fid%3DOIP.YgGbpNZgc3qT8XX0UT5PQgHaEK%26pid%3DApi&q=0&b=1&p=0&a=0"
  },
  {
    "name": "Aiguille Rousse",
    "ele": 3157,
    "coordinates": [
      6.1799737,
      44.8824152
    ],
    "photoUrl": "https://s2.qwant.com/thumbr/474x355/e/9/fdc9e72b2f0f58cd485d7986a6d6ff3db463691cf69ff69af39c6758d81ecd/th.jpg?u=https%3A%2F%2Ftse.mm.bing.net%2Fth%3Fid%3DOIP.Xl1Dw5VYevbDHze0wEB_1QHaFj%26pid%3DApi&q=0&b=1&p=0&a=0"
  },
  {
    "name": "Pointe Maximin",
    "ele": 3329,
    "coordinates": [
      6.1867886,
      44.8775676
    ],
    "photoUrl": "https://s1.qwant.com/thumbr/474x305/a/c/8a33f68f54d907debf4851d54a16982777465c6ebb501892c4559155c908fd/th.jpg?u=https%3A%2F%2Ftse.mm.bing.net%2Fth%3Fid%3DOIP.vuB9j6ngYG_9uhDQtF-SFgHaEx%26pid%3DApi&q=0&b=1&p=0&a=0"
  },
  {
    "name": "Aiguille de l'Olan",
    "ele": 3373,
    "coordinates": [
      6.2008782,
      44.8766635
    ],
    "photoUrl": "https://s2.qwant.com/thumbr/474x474/c/8/ba2441359908a41692550ebd255c534ac3f3c6091e9d81ea559873a6067f56/th.jpg?u=https%3A%2F%2Ftse.mm.bing.net%2Fth%3Fid%3DOIP.yr2Vl9TPTzeFKYkO0bIrRwHaHa%26pid%3DApi&q=0&b=1&p=0&a=0"
  },
  {
    "name": "Cime du Vallon",
    "ele": 3418,
    "coordinates": [
      6.2222957,
      44.8537691
    ],
    "photoUrl": "https://s2.qwant.com/thumbr/474x266/c/8/5ca975d43959c1ac8cd6537421688a86d47de4db303364d59d83a391f61156/th.jpg?u=https%3A%2F%2Ftse.mm.bing.net%2Fth%3Fid%3DOIP.HXVy_zqo4ZYsVtlSdQzD_QHaEK%26pid%3DApi&q=0&b=1&p=0&a=0"
  },
  {
    "name": "Pic Turbat",
    "ele": 3031,
    "coordinates": [
      6.1698394,
      44.8530814
    ],
    "photoUrl": ""
  },
  {
    "name": "Pic des Souffles",
    "ele": 3099,
    "coordinates": [
      6.1364596,
      44.86391
    ],
    "photoUrl": "https://s2.qwant.com/thumbr/400x261/4/7/271df8d7e53af6d6c3c2a7bf35a06cf6916f1801d07a2fa5e0e3fbc5f57b1e/th.jpg?u=https%3A%2F%2Ftse.mm.bing.net%2Fth%3Fid%3DOIP.bbWYL5fMvf8cLzxmVd27SwAAAA%26pid%3DApi&q=0&b=1&p=0&a=0"
  },
  {
    "name": "Aiguille des Marmes",
    "ele": 3057,
    "coordinates": [
      6.0994556,
      44.8952784
    ],
    "photoUrl": "https://s2.qwant.com/thumbr/474x316/4/6/10592bfee25014f0fed2fe0126ecb6b60a810ea43e47f1afdc317f0f23c476/th.jpg?u=https%3A%2F%2Ftse.mm.bing.net%2Fth%3Fid%3DOIP.Rp8lg3b1kyd6yAuijawQPgHaE8%26pid%3DApi&q=0&b=1&p=0&a=0"
  },
  {
    "name": "Pic Sans Nom",
    "ele": 3913,
    "coordinates": [
      6.3842443,
      44.8932777
    ],
    "photoUrl": ""
  },
  {
    "name": "Pic de la Temple",
    "ele": 3314,
    "coordinates": [
      6.3542175,
      44.8969169
    ],
    "photoUrl": "https://s1.qwant.com/thumbr/474x509/8/f/e8af179a1276bc394dd350baa846b506108cf56c22de02da0877145a4eb648/th.jpg?u=https%3A%2F%2Ftse.mm.bing.net%2Fth%3Fid%3DOIP.FaZWguBlYo3SOuEivNyr5wHaH9%26pid%3DApi&q=0&b=1&p=0&a=0"
  },
  {
    "name": "Pic Coolidge",
    "ele": 3775,
    "coordinates": [
      6.3570573,
      44.9099462
    ],
    "photoUrl": ""
  },
  {
    "name": "Le Fifre",
    "ele": 3680,
    "coordinates": [
      6.3563295,
      44.916376
    ],
    "photoUrl": ""
  },
  {
    "name": "Pointe de la Grande Sagne",
    "ele": 3660,
    "coordinates": [
      6.383829,
      44.93464
    ],
    "photoUrl": "https://s2.qwant.com/thumbr/474x316/f/f/3c5c082d06f0d40294632c239a77095b1d1570b526b4297057e72de1fe15ed/th.jpg?u=https%3A%2F%2Ftse.mm.bing.net%2Fth%3Fid%3DOIP.Vw3t-KDNaQ1epd2UVh_fpwHaE8%26pid%3DApi&q=0&b=1&p=0&a=0"
  },
  {
    "name": "Pointe de Balme Rousse",
    "ele": 3224,
    "coordinates": [
      6.3277816,
      44.914341
    ],
    "photoUrl": "https://s1.qwant.com/thumbr/474x317/1/3/1c0316ee39da6ddf854bb76dab484824ada6bc0e8177b839b776de7930ecb3/th.jpg?u=https%3A%2F%2Ftse.mm.bing.net%2Fth%3Fid%3DOIP.P-gxF2uATVct_3Dk9-opKAHaE9%26pid%3DApi&q=0&b=1&p=0&a=0"
  },
  {
    "name": "Pointe de Pié Bérarde",
    "ele": 3188,
    "coordinates": [
      6.3286399,
      44.926131
    ],
    "photoUrl": "https://s1.qwant.com/thumbr/474x355/9/6/faa4d28efc6e7657f0105f3a0e5524146ac41b7c76b33a2ab4ae696d36fe99/th.jpg?u=https%3A%2F%2Ftse.mm.bing.net%2Fth%3Fid%3DOIP.WUoxQkPtuHeXdj85bl46ogHaFj%26pid%3DApi&q=0&b=1&p=0&a=0"
  },
  {
    "name": "Tête du Lac Noir",
    "ele": 3071,
    "coordinates": [
      6.1914932,
      44.9998219
    ],
    "photoUrl": "https://s2.qwant.com/thumbr/474x316/e/0/fc0fc3e301e549817df76fef27b4b1cf8e2ca9a05c85c52af875504b566146/th.jpg?u=https%3A%2F%2Ftse.mm.bing.net%2Fth%3Fid%3DOIP.M158XUdvI7_1V6liBwflLwHaE8%26pid%3DApi&q=0&b=1&p=0&a=0"
  },
  {
    "name": "Roche Mantel",
    "ele": 3052,
    "coordinates": [
      6.1969756,
      45.0099016
    ],
    "photoUrl": "https://s1.qwant.com/thumbr/474x315/1/9/c583e813449f640b88f631cb65de650b098a1434d31b598fe538d2abddcaa1/th.jpg?u=https%3A%2F%2Ftse.mm.bing.net%2Fth%3Fid%3DOIP.UnlRyo_a5MPAuY8JfAKNFgHaE7%26pid%3DApi&q=0&b=1&p=0&a=0"
  },
  {
    "name": "Pointe Léchaud / Punta Lechaud",
    "ele": 3127,
    "coordinates": [
      6.8141703,
      45.7337885
    ],
    "photoUrl": "https://s2.qwant.com/thumbr/474x355/6/3/2f3180aabf4d64dc902785b3c6a9cab2be0128ace401ce6f68ab126dd1c16a/th.jpg?u=https%3A%2F%2Ftse.mm.bing.net%2Fth%3Fid%3DOIP.gqDWOb5i6VpWaj1XZv0jBgHaFj%26pid%3DApi&q=0&b=1&p=0&a=0"
  },
  {
    "wikipediaUri": "fr:Aiguille de Scolette",
    "name": "Aiguille de Scolette / Pierre Menue",
    "ele": 3506,
    "coordinates": [
      6.7682042,
      45.1597528
    ],
    "photoUrl": "https://s1.qwant.com/thumbr/474x355/9/7/033cbe8cf7db6f6d4fe80876faa3402a37e5a50361b46d7703558faccebc78/th.jpg?u=https%3A%2F%2Ftse.mm.bing.net%2Fth%3Fid%3DOIP.69qDYiQxc2B3N75arJWXtAHaFj%26pid%3DApi&q=0&b=1&p=0&a=0"
  },
  {
    "name": "Pointe Orientale de l'Épéna",
    "ele": 3348,
    "coordinates": [
      6.8119278,
      45.4153527
    ],
    "photoUrl": "https://s1.qwant.com/thumbr/474x266/8/8/3bf5c7be269ea93e1e4c571d5e5aefd9e45505319d02d101a3eed12ac7c93f/th.jpg?u=https%3A%2F%2Ftse.mm.bing.net%2Fth%3Fid%3DOIP.Wh0ndNJ8RwYkLM285uLP9wHaEK%26pid%3DApi&q=0&b=1&p=0&a=0"
  },
  {
    "wikipediaUri": "fr:Pointe de la Grande Glière",
    "name": "Pointe de la Grande Glière",
    "ele": 3392,
    "coordinates": [
      6.7917929,
      45.412729
    ],
    "photoUrl": ""
  },
  {
    "name": "Ponte des Volnets",
    "ele": 3247,
    "coordinates": [
      6.7766539,
      45.416176
    ],
    "photoUrl": "https://s2.qwant.com/thumbr/474x315/4/3/d03cc3e93d6af33e70dfe89ab38af56b71963df5740c50824bd8ecdeae2ed0/th.jpg?u=https%3A%2F%2Ftse.mm.bing.net%2Fth%3Fid%3DOIP.0hOAjl8EsmxiA-18StjVxAHaE7%26pid%3DApi&q=0&b=1&p=0&a=0"
  },
  {
    "name": "Pointe de la Réchasse",
    "ele": 3212,
    "coordinates": [
      6.8021235,
      45.373394
    ],
    "photoUrl": ""
  },
  {
    "name": "Dôme de l'Arpont",
    "ele": 3601,
    "coordinates": [
      6.7429504,
      45.3183334
    ],
    "photoUrl": ""
  },
  {
    "name": "Pointe du Creux Noir",
    "ele": 3154,
    "coordinates": [
      6.7569985,
      45.4062995
    ],
    "photoUrl": "https://s2.qwant.com/thumbr/474x266/7/5/cd05399c2c83d500528927d93a7cbdb7455e8f0a634afbe3f2c9e047f8ffde/th.jpg?u=https%3A%2F%2Ftse.mm.bing.net%2Fth%3Fid%3DOIP.kQUGtbANEQUUhUB84QGuygHaEK%26pid%3DApi&q=0&b=1&p=0&a=0"
  },
  {
    "name": "Dôme de la Sache",
    "ele": 3595,
    "coordinates": [
      6.8701605,
      45.5108554
    ],
    "photoUrl": ""
  },
  {
    "name": "Mont Pourri",
    "ele": 3779,
    "coordinates": [
      6.8600956,
      45.5281163
    ],
    "photoUrl": ""
  },
  {
    "wikipediaUri": "fr:Pointe d'Archeboc",
    "name": "Ormelune / Pointe d'Archeboc",
    "ele": 3277,
    "coordinates": [
      6.9805825,
      45.5833904
    ],
    "photoUrl": "https://s2.qwant.com/thumbr/474x355/7/0/8aaead2790121d37e852628b628cc33d5ee7146f59fba8b70d891f0ac9af88/th.jpg?u=https%3A%2F%2Ftse.mm.bing.net%2Fth%3Fid%3DOIP.UxAoGcUj2CvloAx3FhmS4QHaFj%26pid%3DApi&q=0&b=1&p=0&a=0"
  },
  {
    "name": "Pointe de Claret",
    "ele": 3355,
    "coordinates": [
      6.9710826,
      45.3420027
    ],
    "photoUrl": ""
  },
  {
    "name": "Pointe NE du Chatelard",
    "ele": 3434,
    "coordinates": [
      6.9601174,
      45.3373979
    ],
    "photoUrl": "https://s1.qwant.com/thumbr/474x316/9/d/dc3723830e3d69067c53008571bd086b81890b80c78a56599fae23ddb41949/th.jpg?u=https%3A%2F%2Ftse.mm.bing.net%2Fth%3Fid%3DOIP.qwaKuV3f-AhW3PnRdw7UqwHaE8%26pid%3DApi&q=0&b=1&p=0&a=0"
  },
  {
    "name": "Pointe du Vallonbrun",
    "ele": 3413,
    "coordinates": [
      6.9379677,
      45.330137
    ],
    "photoUrl": "https://s1.qwant.com/thumbr/474x355/b/f/ee68f0c92b538723d84a4645444b5fcc0d9b3ee8e212308a82221d3bf57bb0/th.jpg?u=https%3A%2F%2Ftse.mm.bing.net%2Fth%3Fid%3DOIP.Xf2_lpH9DFpoqqE1xJLGiAEsDh%26pid%3DApi&q=0&b=1&p=0&a=0"
  },
  {
    "wikipediaUri": "it:Monte Niblè",
    "name": "Monte Niblè / Pointe Ferrand",
    "ele": 3365,
    "coordinates": [
      6.8957982,
      45.1388896
    ],
    "photoUrl": "https://s2.qwant.com/thumbr/474x355/d/a/40c4b1d7bc1ebd96eb8f8f3100f311152bca57c518b45aa151a7e1baf0253f/th.jpg?u=https%3A%2F%2Ftse.mm.bing.net%2Fth%3Fid%3DOIP.OMg1yLN2kjVs_ujKdSaCZAHaFj%26pid%3DApi&q=0&b=1&p=0&a=0"
  },
  {
    "wikipediaUri": "it:Rognosa d'Etiache",
    "name": "Rognosa d'Etache / Rognosa d'Etiache",
    "ele": 3373,
    "coordinates": [
      6.8360477,
      45.1352253
    ],
    "photoUrl": "https://s1.qwant.com/thumbr/474x316/0/6/a1531bc2a5bf5613a7a216e3845290aaca8e9b8748431cde0692bb16f71ccf/th.jpg?u=https%3A%2F%2Ftse.mm.bing.net%2Fth%3Fid%3DOIP.zEF5a-DJZZs7E4lEZGmYmQHaE8%26pid%3DApi&q=0&b=1&p=0&a=0"
  },
  {
    "name": "Pointe des Buffettes",
    "ele": 3233,
    "coordinates": [
      7.0074659,
      45.3655573
    ],
    "photoUrl": ""
  },
  {
    "name": "Pointe des Lauses Noires / Punta Lose Nere",
    "ele": 3371,
    "coordinates": [
      7.1168876,
      45.2455905
    ],
    "photoUrl": "https://s2.qwant.com/thumbr/474x355/7/6/e0a495b83b143d71867a29ef7608324d684848fbb1b0ac48609073a392562f/th.jpg?u=https%3A%2F%2Ftse.mm.bing.net%2Fth%3Fid%3DOIP.4pyATIsfZ5J1nCzH2rzs-QHaFj%26pid%3DApi&q=0&b=1&p=0&a=0"
  },
  {
    "name": "Le Signal de Méan Martin",
    "ele": 3315,
    "coordinates": [
      6.9980778,
      45.3667895
    ],
    "photoUrl": "https://s1.qwant.com/thumbr/474x315/a/8/1bc0fca7ff286b2d6535792fb76ab96949a62ebb15db5002c3b2a6a3b68a40/th.jpg?u=https%3A%2F%2Ftse.mm.bing.net%2Fth%3Fid%3DOIP.991PxBrwLjtFPSGP__0ClQHaE7%26pid%3DApi&q=0&b=1&p=0&a=0"
  },
  {
    "name": "Pointe Sud du Couart Dessus",
    "ele": 3469,
    "coordinates": [
      7.0486167,
      45.472447
    ],
    "photoUrl": "https://s1.qwant.com/thumbr/474x266/0/4/b97e9f1b6005ab2c148f6492ec3987753ea10ce1153e1c667fc17636d95383/th.jpg?u=https%3A%2F%2Ftse.mm.bing.net%2Fth%3Fid%3DOIP.hMfbpnLHpCxAtLjWsaycMQHaEK%26pid%3DApi&q=0&b=1&p=0&a=0"
  },
  {
    "name": "Pic du Montcalm",
    "ele": 3077,
    "coordinates": [
      1.4063347,
      42.6719036
    ],
    "photoUrl": ""
  },
  {
    "wikipediaUri": "es:Pico Verdaguer",
    "name": "Pic Verdaguer",
    "ele": 3129,
    "coordinates": [
      1.396855,
      42.6680493
    ],
    "photoUrl": ""
  },
  {
    "name": "Pointe Mathews",
    "ele": 3783,
    "coordinates": [
      6.8216468,
      45.3995013
    ],
    "photoUrl": "https://s2.qwant.com/thumbr/474x315/6/c/990a2750400f02804f8a92f7c1a6fdb1ee60e58982c83357ddde2be08b64a0/th.jpg?u=https%3A%2F%2Ftse.mm.bing.net%2Fth%3Fid%3DOIP.R1ucdxJ_gqe8d-THB-wOJgHaE7%26pid%3DApi&q=0&b=1&p=0&a=0"
  },
  {
    "name": "Tête Blanche",
    "ele": 3421,
    "coordinates": [
      7.0190616,
      45.983959
    ],
    "photoUrl": ""
  },
  {
    "wikipediaUri": "fr:Pic de Troumouse",
    "name": "Pic de Troumouse",
    "ele": 3085,
    "coordinates": [
      0.1367431,
      42.7224452
    ],
    "photoUrl": ""
  },
  {
    "wikipediaUri": "es:Pico Balaitús",
    "name": "Pic du Balaïtous",
    "ele": 3146,
    "coordinates": [
      -0.290257,
      42.8389387
    ],
    "photoUrl": ""
  },
  {
    "name": "Petit Dru",
    "ele": 3733,
    "coordinates": [
      6.9544787,
      45.9319163
    ],
    "photoUrl": ""
  },
  {
    "wikipediaUri": "fr:Les Courtes",
    "name": "Les Courtes",
    "ele": 3856,
    "coordinates": [
      7.0039859,
      45.9273818
    ],
    "photoUrl": ""
  },
  {
    "name": "Aiguille Chenavier",
    "ele": 3799,
    "coordinates": [
      7.0055417,
      45.9263537
    ],
    "photoUrl": "https://s1.qwant.com/thumbr/200x200/3/5/c76645520242120bfc6af061ace9de346db9f04ac002a6762d000f35f9fed8/th.jpg?u=https%3A%2F%2Ftse.mm.bing.net%2Fth%3Fid%3DOIP.tC4q0TX2ewslAaw4HK4lAAAAAA%26pid%3DApi&q=0&b=1&p=0&a=0"
  },
  {
    "name": "Aiguille qui Remue",
    "ele": 3742,
    "coordinates": [
      7.0070112,
      45.9245978
    ],
    "photoUrl": "https://s2.qwant.com/thumbr/474x355/6/8/ad57033545b289cbe5d716cee43ef5c6df12af88658e5154386e503b239ed9/th.jpg?u=https%3A%2F%2Ftse.mm.bing.net%2Fth%3Fid%3DOIP.fWjgnwCNrnEIQl6s7MlBIwHaFj%26pid%3DApi&q=0&b=1&p=0&a=0"
  },
  {
    "name": "Pointe de Pré de Bar Est",
    "ele": 3658,
    "coordinates": [
      7.03817,
      45.9212942
    ],
    "photoUrl": "https://s1.qwant.com/thumbr/474x315/9/e/6c17bcb880497623c1976fb9a8510fa2a74612483a085960f4936894c62c5f/th.jpg?u=https%3A%2F%2Ftse.mm.bing.net%2Fth%3Fid%3DOIP.AVDgxO41EVfOKywPb-i3oQHaE7%26pid%3DApi&q=0&b=1&p=0&a=0"
  },
  {
    "wikipediaUri": "en:Aiguille du Jardin",
    "name": "Aiguille du Jardin",
    "ele": 4035,
    "coordinates": [
      6.9758972,
      45.9333511
    ],
    "photoUrl": ""
  },
  {
    "wikipediaUri": "en:Grande Rocheuse",
    "name": "Grande Rocheuse",
    "ele": 4102,
    "coordinates": [
      6.9725739,
      45.9339484
    ],
    "photoUrl": ""
  },
  {
    "name": "Aiguille Sans Nom",
    "ele": 3982,
    "coordinates": [
      6.9642238,
      45.9333605
    ],
    "photoUrl": "https://s2.qwant.com/thumbr/474x316/e/8/489733810279e2427e680f39bbf5f12ac5a8d3dd87363864567353ae3191f9/th.jpg?u=https%3A%2F%2Ftse.mm.bing.net%2Fth%3Fid%3DOIP.kCfi5sXdAR1kwq0WD1jlfwHaE8%26pid%3DApi&q=0&b=1&p=0&a=0"
  },
  {
    "name": "Pointe de Frébouze - Antoldi",
    "ele": 3530,
    "coordinates": [
      6.9984471,
      45.8786167
    ],
    "photoUrl": "https://s2.qwant.com/thumbr/474x205/e/b/af6a4448d5f9b8f73606f58fb15ce86c33739c1946b954218e5b75f42604f9/th.jpg?u=https%3A%2F%2Ftse.mm.bing.net%2Fth%3Fid%3DOIP.6mApiTcgm3efZsTl1CofYgHaDN%26pid%3DApi&q=0&b=1&p=0&a=0"
  },
  {
    "wikipediaUri": "it:Punta Margherita (Grandes Jorasses)",
    "name": "Pointe Marguerite / Punta Margherita",
    "ele": 4065,
    "coordinates": [
      6.9778602,
      45.8685716
    ],
    "photoUrl": "https://s1.qwant.com/thumbr/474x363/a/b/90bb611229970be5c67ba53993ae20f60dcf58654ba30690c1f49f335a6ee8/th.jpg?u=https%3A%2F%2Ftse.mm.bing.net%2Fth%3Fid%3DOIP.Ao9tn3fk5mpU23_vIigkeQHaFr%26pid%3DApi&q=0&b=1&p=0&a=0"
  },
  {
    "name": "Pointe Yeld",
    "ele": 3560,
    "coordinates": [
      6.9438731,
      45.865858
    ],
    "photoUrl": "https://s1.qwant.com/thumbr/474x316/2/6/a3c97126421642dceaf91bd49e972844634fae838932895478cdcc12ef0f45/th.jpg?u=https%3A%2F%2Ftse.mm.bing.net%2Fth%3Fid%3DOIP.milO3ljsG2P3g5HmEmBjpAHaE8%26pid%3DApi&q=0&b=1&p=0&a=0"
  },
  {
    "wikipediaUri": "it:Aiguilles Marbrées",
    "name": "Aiguilles Marbrées",
    "ele": 3535,
    "coordinates": [
      6.9411569,
      45.8515876
    ],
    "photoUrl": "https://s2.qwant.com/thumbr/474x210/7/5/51613df2437e4e6637dcd446ee89b7c1e6ed0122e98960f56e9bc52ae61fb6/th.jpg?u=https%3A%2F%2Ftse.mm.bing.net%2Fth%3Fid%3DOIP.GJ5cBDkD9zqZTuHIrP5YPAHaDS%26pid%3DApi&q=0&b=1&p=0&a=0"
  },
  {
    "name": "Pointe Sisyphe",
    "ele": 3460,
    "coordinates": [
      6.9600284,
      45.8745972
    ],
    "photoUrl": "https://s1.qwant.com/thumbr/474x346/9/3/c66bd8248322f53097993be0341d21fd9afe525167ede681af698eabe8f16d/th.jpg?u=https%3A%2F%2Ftse.mm.bing.net%2Fth%3Fid%3DOIP.o6nsNavwM9oidt8ZcWJbmgHaFa%26pid%3DApi&q=0&b=1&p=0&a=0"
  },
  {
    "name": "Petite Fourche",
    "ele": 3512,
    "coordinates": [
      7.0221096,
      45.980414
    ],
    "photoUrl": "https://s1.qwant.com/thumbr/474x355/9/f/c0e9c255bc312c92b6bfb3e71e645e57bc6e4a3a200c2824ecc93215acecbd/th.jpg?u=https%3A%2F%2Ftse.mm.bing.net%2Fth%3Fid%3DOIP.72vIcz5_7aqH4tgF7zn0jwHaFj%26pid%3DApi&q=0&b=1&p=0&a=0"
  },
  {
    "name": "Dôme des Glaciers",
    "ele": 3592,
    "coordinates": [
      6.7978047,
      45.7792528
    ],
    "photoUrl": "https://s2.qwant.com/thumbr/474x355/d/2/3524d12d40b113ce4501b683e9fcc6d8fd1dd477b9b56318ca8cec69ef18d5/th.jpg?u=https%3A%2F%2Ftse.mm.bing.net%2Fth%3Fid%3DOIP.GjwiczDQS-YxdyVySNn-OQHaFj%26pid%3DApi&q=0&b=1&p=0&a=0"
  },
  {
    "name": "Petit Vignemale",
    "ele": 3032,
    "coordinates": [
      -0.135048,
      42.774699
    ],
    "photoUrl": ""
  },
  {
    "name": "Pico de Montferrato",
    "ele": 3219,
    "coordinates": [
      -0.1382876,
      42.7666277
    ],
    "photoUrl": "https://s2.qwant.com/thumbr/474x296/5/a/d4103c12134fa768436d5335ff4d81a903bce7ac9178088e6951ef73a6c6aa/th.jpg?u=https%3A%2F%2Ftse.mm.bing.net%2Fth%3Fid%3DOIP.2yekxLxj9UeS3acoIMuNpQHaEo%26pid%3DApi&q=0&b=1&p=0&a=0"
  },
  {
    "wikipediaUri": "es:Pico Gran Facha",
    "name": "Grande Fache",
    "ele": 3005,
    "coordinates": [
      -0.237874,
      42.8081942
    ],
    "photoUrl": ""
  },
  {
    "name": "Aiguille Occidentale du Soreiller",
    "ele": 3208,
    "coordinates": [
      6.2383888,
      44.9665101
    ],
    "photoUrl": "https://s2.qwant.com/thumbr/474x355/5/6/af18ea200b3a5ec586152eac13d0d7836dc3dbb8a5f25b7281a44b068643ce/th.jpg?u=https%3A%2F%2Ftse.mm.bing.net%2Fth%3Fid%3DOIP.5SYzdYTNuWqPrfe3m6RMRgHaFj%26pid%3DApi&q=0&b=1&p=0&a=0"
  },
  {
    "name": "Pointes de Burlan",
    "ele": 3299,
    "coordinates": [
      6.2342911,
      44.9685324
    ],
    "photoUrl": "https://s2.qwant.com/thumbr/474x355/7/4/dfe7642d8d37cfaf612d4945d30252a343a3fc011e6d5d0d976e35dd1dab7c/th.jpg?u=https%3A%2F%2Ftse.mm.bing.net%2Fth%3Fid%3DOIP.uBbqvhw7GIqMvehsSwRW9QHaFj%26pid%3DApi&q=0&b=1&p=0&a=0"
  },
  {
    "name": "Aiguille Dibona",
    "ele": 3131,
    "coordinates": [
      6.2428893,
      44.9632445
    ],
    "photoUrl": ""
  },
  {
    "name": "Clochetons Gunneng",
    "ele": 3108,
    "coordinates": [
      6.2426718,
      44.9636376
    ],
    "photoUrl": "https://s2.qwant.com/thumbr/474x355/7/7/209deb4b34905250f0cbd5deb69c5c27a032edb195340a10f7e0d3bb6bd684/th.jpg?u=https%3A%2F%2Ftse.mm.bing.net%2Fth%3Fid%3DOIP.-DCPr-3nrrHPmrIqnxqVOQHaFj%26pid%3DApi&q=0&b=1&p=0&a=0"
  },
  {
    "name": "Tours Rouges de l'Aiguille Orientale",
    "ele": 3167,
    "coordinates": [
      6.2499363,
      44.96594
    ],
    "photoUrl": "https://s2.qwant.com/thumbr/474x256/d/2/a9460f8365d7eda6dae0b09396fe81be6a014ea9f3b26d09a44fc68c345e52/th.jpg?u=https%3A%2F%2Ftse.mm.bing.net%2Fth%3Fid%3DOIP.XVs0WbN1ra0tbLsqccNhBAHaEA%26pid%3DApi&q=0&b=1&p=0&a=0"
  },
  {
    "name": "Aiguille Orientale du Soreiller",
    "ele": 3380,
    "coordinates": [
      6.2485168,
      44.9678346
    ],
    "photoUrl": "https://s1.qwant.com/thumbr/474x315/8/5/b0aba88cca543fdd5da5bf4ece31eb5690f6cfbb0024c7eeb3efe23d678ed1/th.jpg?u=https%3A%2F%2Ftse.mm.bing.net%2Fth%3Fid%3DOIP.oNxKK4FJr8lupfSF_Or1-AHaE7%26pid%3DApi&q=0&b=1&p=0&a=0"
  },
  {
    "name": "Aiguille Centrale du Soreiller",
    "ele": 3338,
    "coordinates": [
      6.2417123,
      44.9668766
    ],
    "photoUrl": "https://s1.qwant.com/thumbr/474x316/2/1/94efdfb2e027eb65d83c172149b123790639bf90606292626cd853b3a042a4/th.jpg?u=https%3A%2F%2Ftse.mm.bing.net%2Fth%3Fid%3DOIP.-JZ1RX9HMR2bN-0Hl2KrPgHaE8%26pid%3DApi&q=0&b=1&p=0&a=0"
  },
  {
    "name": "Pointe d'Amont",
    "ele": 3338,
    "coordinates": [
      6.2434467,
      44.9681545
    ],
    "photoUrl": "https://s1.qwant.com/thumbr/474x355/a/b/b2c07867312b23ed538d4fcd25aeae4e0bf0d394995acc036d8faae2a467a6/th.jpg?u=https%3A%2F%2Ftse.mm.bing.net%2Fth%3Fid%3DOIP.wT1WSMub5oyOpwB8UtlnwgHaFj%26pid%3DApi&q=0&b=1&p=0&a=0"
  },
  {
    "name": "Pic Gény",
    "ele": 3435,
    "coordinates": [
      6.2636665,
      44.957495
    ],
    "photoUrl": "https://s1.qwant.com/thumbr/474x355/b/f/4fd761082930ffbd84a041cbae3a9a2d67b4bdb0caf410b83be436ac6c3e9d/th.jpg?u=https%3A%2F%2Ftse.mm.bing.net%2Fth%3Fid%3DOIP.iGE-y2UX6upAd51WsTzRlgHaFj%26pid%3DApi&q=0&b=1&p=0&a=0"
  },
  {
    "name": "Dôme de la Gandolière",
    "ele": 3495,
    "coordinates": [
      6.2672297,
      44.9734211
    ],
    "photoUrl": "https://s1.qwant.com/thumbr/474x355/1/c/b96d46068501bcb38aa34aa750c4cb70fa345c5076b930a0249afdc6b81513/th.jpg?u=https%3A%2F%2Ftse.mm.bing.net%2Fth%3Fid%3DOIP.eHjR03hjeYLqgu3U2DCO5gHaFj%26pid%3DApi&q=0&b=1&p=0&a=0"
  },
  {
    "name": "Dôme de la Lauze",
    "ele": 3568,
    "coordinates": [
      6.2460457,
      44.9971305
    ],
    "photoUrl": ""
  },
  {
    "name": "Tête Nord du Replat",
    "ele": 3442,
    "coordinates": [
      6.2832789,
      44.9873545
    ],
    "photoUrl": "https://s1.qwant.com/thumbr/474x355/b/c/dfddfdd56c34b69f3ca1affc846bd0656b998354e9182f55eb88d393e92abf/th.jpg?u=https%3A%2F%2Ftse.mm.bing.net%2Fth%3Fid%3DOIP.qi7NNaxZeiFrbfcc-e_MGQHaFj%26pid%3DApi&q=0&b=1&p=0&a=0"
  },
  {
    "name": "Pointe Thorant",
    "ele": 3583,
    "coordinates": [
      6.2629451,
      44.9959485
    ],
    "photoUrl": "https://s2.qwant.com/thumbr/474x355/d/8/81fce12950fb3ef733a6adf749157d9ce89268e1b24c713da829a0a8fd890d/th.jpg?u=https%3A%2F%2Ftse.mm.bing.net%2Fth%3Fid%3DOIP.4r8jgTdCyoRg36LbLbos0wHaFj%26pid%3DApi&q=0&b=1&p=0&a=0"
  },
  {
    "name": "Pointe Dosia",
    "ele": 3611,
    "coordinates": [
      6.2671532,
      44.9986204
    ],
    "photoUrl": "https://s1.qwant.com/thumbr/474x308/3/5/5dba9b1e4920f9757de19a7a3437eaa5af64d65952978c8c16158dcc9bb40f/th.jpg?u=https%3A%2F%2Ftse.mm.bing.net%2Fth%3Fid%3DOIP.oGerwaqBftbMz7oqnZ46oQHaE0%26pid%3DApi&q=0&b=1&p=0&a=0"
  },
  {
    "name": "Le Râteau - Pic Ouest",
    "ele": 3769,
    "coordinates": [
      6.2769173,
      45.0008033
    ],
    "photoUrl": "https://s1.qwant.com/thumbr/474x316/a/e/5bd2f46586367817ebfd8f304116725d502e116274de034362174104aa5845/th.jpg?u=https%3A%2F%2Ftse.mm.bing.net%2Fth%3Fid%3DOIP.BsVmZOchJD5ukCri9HnAzwHaE8%26pid%3DApi&q=0&b=1&p=0&a=0"
  },
  {
    "name": "Pic Est de Combeynot",
    "ele": 3145,
    "coordinates": [
      6.4208357,
      45.0155736
    ],
    "photoUrl": ""
  },
  {
    "name": "Pic du Lac de Combeynot",
    "ele": 3088,
    "coordinates": [
      6.4158124,
      44.9969494
    ],
    "photoUrl": ""
  },
  {
    "name": "Roche Émile Pic",
    "ele": 3586,
    "coordinates": [
      6.3844992,
      44.955328
    ],
    "photoUrl": "https://s1.qwant.com/thumbr/474x632/8/0/21a7ef7e46de7a04fe5bb351be70066903824e7c494d2cd446ccb0838465c4/th.jpg?u=https%3A%2F%2Ftse.mm.bing.net%2Fth%3Fid%3DOIP.Lnpj-sU68i3ukfSNmkRrwAHaJ4%26pid%3DApi&q=0&b=1&p=0&a=0"
  },
  {
    "name": "Tête de Couleau",
    "ele": 3038,
    "coordinates": [
      6.4547791,
      44.6842873
    ],
    "photoUrl": "https://s2.qwant.com/thumbr/474x266/c/5/c19078d79e3e8761504ef5797e8b4443c6cc58e44f98873b268f4b02cca86c/th.jpg?u=https%3A%2F%2Ftse.mm.bing.net%2Fth%3Fid%3DOIP.VN_tRdd86oplhjE8Nj2H6gHaEK%26pid%3DApi&q=0&b=1&p=0&a=0"
  },
  {
    "name": "Pointe du Dard",
    "ele": 3206,
    "coordinates": [
      6.7653601,
      45.3637568
    ],
    "photoUrl": ""
  },
  {
    "name": "Pointe de Chevrière",
    "ele": 3057,
    "coordinates": [
      6.7119583,
      45.2938863
    ],
    "photoUrl": "https://s1.qwant.com/thumbr/474x266/1/4/a12fd089723fca5c44c4c35bac0189b502e4b6e916a2cf39551c8f5e1d3d56/th.jpg?u=https%3A%2F%2Ftse4.explicit.bing.net%2Fth%3Fid%3DOIP.ZcihncOQaELbR7VTR2hsFgHaEK%26pid%3DApi&q=0&b=1&p=0&a=0"
  },
  {
    "name": "Pointe du Génépi",
    "ele": 3551,
    "coordinates": [
      6.7344643,
      45.3029949
    ],
    "photoUrl": "https://s2.qwant.com/thumbr/474x632/d/9/edaa6d732d25e5788524debc3d154d368484f5c0d0c89170585b2ac239d5e9/th.jpg?u=https%3A%2F%2Ftse.mm.bing.net%2Fth%3Fid%3DOIP.A3n96iduJtyO261WWWmE8AHaJ4%26pid%3DApi&q=0&b=1&p=0&a=0"
  },
  {
    "name": "Dôme des Nants",
    "ele": 3570,
    "coordinates": [
      6.7414594,
      45.3258696
    ],
    "photoUrl": ""
  },
  {
    "name": "Dôme de Chasseforêt",
    "ele": 3586,
    "coordinates": [
      6.7607046,
      45.3307549
    ],
    "photoUrl": ""
  },
  {
    "name": "Dôme des Sonnailles",
    "ele": 3361,
    "coordinates": [
      6.745442,
      45.3453667
    ],
    "photoUrl": ""
  },
  {
    "wikipediaUri": "es:Pico Viñamala",
    "name": "Vignemale",
    "ele": 3298,
    "coordinates": [
      -0.1473437,
      42.773943
    ],
    "photoUrl": ""
  },
  {
    "wikipediaUri": "it:Tête de la Frema",
    "name": "Tête de la Frema",
    "ele": 3151,
    "coordinates": [
      6.869905,
      44.537341
    ],
    "photoUrl": "https://s1.qwant.com/thumbr/474x474/b/2/c65274cbdd3bec4a9453d56fefa68e34fbb8ea9e4d0dd707bd271deb80b67e/th.jpg?u=https%3A%2F%2Ftse.mm.bing.net%2Fth%3Fid%3DOIP.kL53-3EwtW6yBPGYPaqVUwHaHa%26pid%3DApi&q=0&b=1&p=0&a=0"
  },
  {
    "wikipediaUri": "it:Tête de l'Homme",
    "name": "Brec de l'Homme / Tête de l'Homme",
    "ele": 3211,
    "coordinates": [
      6.8732327,
      44.5459864
    ],
    "photoUrl": "https://s2.qwant.com/thumbr/474x316/f/4/e65a632ddd4d6e7035464b86731145bec718a15d20fe6d9d3fc7f6a1052bf5/th.jpg?u=https%3A%2F%2Ftse.mm.bing.net%2Fth%3Fid%3DOIP.Ih6OOQvBY7uwI__Bu1pWfAHaE8%26pid%3DApi&q=0&b=1&p=0&a=0"
  },
  {
    "name": "Pointe des Estaris",
    "ele": 3086,
    "coordinates": [
      6.3418092,
      44.7424605
    ],
    "photoUrl": ""
  },
  {
    "name": "Neige de Marie - Rocce Rosse",
    "ele": 3375,
    "coordinates": [
      7.1321578,
      45.273673
    ],
    "photoUrl": "https://s2.qwant.com/thumbr/474x355/d/5/5f2cc651773f61fec23641fd3b7f8d9c90dd595e381d81a1703a48dc562f56/th.jpg?u=https%3A%2F%2Ftse.mm.bing.net%2Fth%3Fid%3DOIP.LSR0vBwYqUA2CRzYQaIK9QHaFj%26pid%3DApi&q=0&b=1&p=0&a=0"
  },
  {
    "name": "Ouille du Midi",
    "ele": 3042,
    "coordinates": [
      7.0939409,
      45.3613341
    ],
    "photoUrl": "https://s1.qwant.com/thumbr/474x213/1/5/8fc3c389c9bfe4c2b8d4699d8fc80d0732b278fc13bd36497c5a3fba537a0d/th.jpg?u=https%3A%2F%2Ftse.mm.bing.net%2Fth%3Fid%3DOIP.53oUsVWQ3tnkD94AiagZvgHaDV%26pid%3DApi&q=0&b=1&p=0&a=0"
  },
  {
    "name": "Tête de Longet",
    "ele": 3146,
    "coordinates": [
      6.9158267,
      44.6599148
    ],
    "photoUrl": "https://s1.qwant.com/thumbr/474x355/2/f/6ede6ae1105f2e2277da9ddc15ae0dd6107a40ace7fa0f67754001fd77ccc1/th.jpg?u=https%3A%2F%2Ftse.mm.bing.net%2Fth%3Fid%3DOIP.FuIyQz_HbC6qElj9ZoVzFwHaFj%26pid%3DApi&q=0&b=1&p=0&a=0"
  },
  {
    "name": "Pic de la Farnéiréta",
    "ele": 3133,
    "coordinates": [
      6.9332252,
      44.6533938
    ],
    "photoUrl": "https://s2.qwant.com/thumbr/474x266/e/d/eca44d3210a406e925bb492cf00ed6eacdf0758fa8ef8c1e3e30cfbbc72e3f/th.jpg?u=https%3A%2F%2Ftse.mm.bing.net%2Fth%3Fid%3DOIP.EjaV13t6H3WCQQNpXIB6zAHaEK%26pid%3DApi&q=0&b=1&p=0&a=0"
  },
  {
    "wikipediaUri": "fr:Gros Rognon",
    "name": "Gros Rognon",
    "ele": 3536,
    "coordinates": [
      6.9048567,
      45.8686385
    ],
    "photoUrl": ""
  },
  {
    "name": "Petit Flambeau",
    "ele": 3440,
    "coordinates": [
      6.9291924,
      45.8519534
    ],
    "photoUrl": "https://s1.qwant.com/thumbr/474x266/1/f/f9fb67f900ac172e0a27ec060569c47b2cc0341694316f61c2621ace265cc1/th.jpg?u=https%3A%2F%2Ftse.mm.bing.net%2Fth%3Fid%3DOIP.GYwoS7yJ_9fyBTXAb1FjawHaEK%26pid%3DApi&q=0&b=1&p=0&a=0"
  },
  {
    "name": "Aiguille des Espères",
    "ele": 3059,
    "coordinates": [
      6.2382457,
      44.7725256
    ],
    "photoUrl": "https://s2.qwant.com/thumbr/474x316/5/a/bc17eeb81a8545aae7de2d9a702ea06852ecc95cbc0449f7d63c530421da9c/th.jpg?u=https%3A%2F%2Ftse.mm.bing.net%2Fth%3Fid%3DOIP.dL-cIhLU4NPoim2ygGjl8QHaE8%26pid%3DApi&q=0&b=1&p=0&a=0"
  },
  {
    "name": "L'Olan",
    "ele": 3564,
    "coordinates": [
      6.1967866,
      44.859056
    ],
    "photoUrl": ""
  },
  {
    "wikipediaUri": "fr:Grand Astazou",
    "name": "Grand Astazou",
    "ele": 3071,
    "coordinates": [
      0.0236816,
      42.7024839
    ],
    "photoUrl": ""
  },
  {
    "name": "Pic de Lustou",
    "ele": 3023,
    "coordinates": [
      0.3600008,
      42.7347815
    ],
    "photoUrl": ""
  },
  {
    "name": "Tour Choisy",
    "ele": 3671,
    "coordinates": [
      6.3278726,
      44.9640787
    ],
    "photoUrl": "https://s2.qwant.com/thumbr/400x379/6/9/d77d10bb77e16440bf68f8ebad23378920f55af94fc027dac1a76d68f5099d/th.jpg?u=https%3A%2F%2Ftse.mm.bing.net%2Fth%3Fid%3DOIP.AxK2UUleCiYlS5zYFe7iYwAAAA%26pid%3DApi&q=0&b=1&p=0&a=0"
  },
  {
    "name": "Pointe des Aigles",
    "ele": 3336,
    "coordinates": [
      6.3159399,
      44.9902691
    ],
    "photoUrl": "https://s2.qwant.com/thumbr/474x355/6/a/1e2ba940795bfcd723312d5f62ce0c7cf0d870f559692e923d21e526e4f645/th.jpg?u=https%3A%2F%2Ftse.mm.bing.net%2Fth%3Fid%3DOIP.4X_FFBKRXV_WFxdZDKO0YQHaFj%26pid%3DApi&q=0&b=1&p=0&a=0"
  },
  {
    "name": "Bonnet des Cavales",
    "ele": 3285,
    "coordinates": [
      6.3180279,
      44.9756383
    ],
    "photoUrl": "https://s1.qwant.com/thumbr/474x316/3/2/a013ea90aca5e0b131ec271cb5d7fadd2c94162dc8f9194b73e8e44f42d7b2/th.jpg?u=https%3A%2F%2Ftse.mm.bing.net%2Fth%3Fid%3DOIP.z_uPNNfc4_6i3DMoiQD5AQHaE8%26pid%3DApi&q=0&b=1&p=0&a=0"
  },
  {
    "name": "Pointe des Chamois",
    "ele": 3315,
    "coordinates": [
      6.3172006,
      44.9884181
    ],
    "photoUrl": "https://s1.qwant.com/thumbr/474x355/9/e/d8e96d0c184b34069f4ae108f8b019a8e81ff2c07849d05f1c0b784acb672a/th.jpg?u=https%3A%2F%2Ftse.mm.bing.net%2Fth%3Fid%3DOIP.NYczFYripxBvarDQsWxWcwHaFj%26pid%3DApi&q=0&b=1&p=0&a=0"
  },
  {
    "wikipediaUri": "it:Rocce Fourioun",
    "name": "Pointe de Marte / Rocce Fourioun",
    "ele": 3153,
    "coordinates": [
      7.0658621,
      44.7075194
    ],
    "photoUrl": "https://s1.qwant.com/thumbr/474x355/0/2/425d59338666f9775543cc41d63945df89efa820f97ed7cb6d2c00d77c01b1/th.jpg?u=https%3A%2F%2Ftse.mm.bing.net%2Fth%3Fid%3DOIP.GDS37jbcWYN6eNRiqivG9AEsDh%26pid%3DApi&q=0&b=1&p=0&a=0"
  },
  {
    "wikipediaUri": "it:Punta Venezia",
    "name": "Pointe de Venise / Punta Venezia",
    "ele": 3095,
    "coordinates": [
      7.07077,
      44.7002352
    ],
    "photoUrl": "https://s2.qwant.com/thumbr/474x474/c/e/4f7e770add756e3ff6af05cc1f683ac42eef4863f65c9bfab4cda11d4aad40/th.jpg?u=https%3A%2F%2Ftse.mm.bing.net%2Fth%3Fid%3DOIP.ATvria05yKdt94LIK9wIDwHaHa%26pid%3DApi&q=0&b=1&p=0&a=0"
  },
  {
    "name": "Pointe Salvador",
    "ele": 3202,
    "coordinates": [
      6.339928,
      45.1161191
    ],
    "photoUrl": "https://s2.qwant.com/thumbr/474x266/4/3/8f9e122e1d602f664a4377f5356a8984c40063c4a26d7bb3d5694eb32bf464/th.jpg?u=https%3A%2F%2Ftse.mm.bing.net%2Fth%3Fid%3DOIP.hhocSc3-ob5lvtNMg2BuEAHaEK%26pid%3DApi&q=0&b=1&p=0&a=0"
  },
  {
    "name": "Ailefroide Orientale",
    "ele": 3847,
    "coordinates": [
      6.3687468,
      44.8880751
    ],
    "photoUrl": "https://s2.qwant.com/thumbr/474x316/f/2/092fdeda0e2aaf009a7c1b0c76a5af3b9d0116897a8e8dcb22fc59cff08ec2/th.jpg?u=https%3A%2F%2Ftse.mm.bing.net%2Fth%3Fid%3DOIP.dzVmvC6XPBf2bpQ1S95xsgHaE8%26pid%3DApi&q=0&b=1&p=0&a=0"
  },
  {
    "name": "Ailefroide Pointe Fourastier",
    "ele": 3908,
    "coordinates": [
      6.3625738,
      44.8880808
    ],
    "photoUrl": "https://s1.qwant.com/thumbr/474x313/a/5/23a4867afb37e2cf6e2c44cd34a31c080e3b6a0e085491e2b1fbfd09e65099/th.jpg?u=https%3A%2F%2Ftse.mm.bing.net%2Fth%3Fid%3DOIP.Ru3d0xcTCj-9ZRePD223awHaE5%26pid%3DApi&q=0&b=1&p=0&a=0"
  },
  {
    "name": "Aiguille de Sialouze",
    "ele": 3576,
    "coordinates": [
      6.3849027,
      44.8880352
    ],
    "photoUrl": "https://s2.qwant.com/thumbr/474x355/f/d/634b23845609bcf349726caed8197a943edd9b35349ad3dcad0c51e52f2a17/th.jpg?u=https%3A%2F%2Ftse.mm.bing.net%2Fth%3Fid%3DOIP.o1YguWIrE94lpW1K4sFjbAHaFj%26pid%3DApi&q=0&b=1&p=0&a=0"
  },
  {
    "name": "Pointe du Sélé",
    "ele": 3556,
    "coordinates": [
      6.3543887,
      44.8654812
    ],
    "photoUrl": "https://s1.qwant.com/thumbr/474x355/3/6/3aca27cfaede15e7d146b6cf666147b2ad388c696837ddec482444005150ba/th.jpg?u=https%3A%2F%2Ftse.mm.bing.net%2Fth%3Fid%3DOIP.YohjttMOzuvsgxiI6kow1wHaFj%26pid%3DApi&q=0&b=1&p=0&a=0"
  },
  {
    "name": "Pointe des Boeufs Rouges",
    "ele": 3516,
    "coordinates": [
      6.3554829,
      44.8549972
    ],
    "photoUrl": "https://s2.qwant.com/thumbr/474x316/f/e/1a341c323c2ada4fd18f916a23db3926f148c44c056c958e8560c1ee779366/th.jpg?u=https%3A%2F%2Ftse.mm.bing.net%2Fth%3Fid%3DOIP.HWjjIL9JQ0L6G0eXcIIVHQHaE8%26pid%3DApi&q=0&b=1&p=0&a=0"
  },
  {
    "name": "L'Ailefroide Centrale",
    "ele": 3927,
    "coordinates": [
      6.3593674,
      44.8879853
    ],
    "photoUrl": "https://s1.qwant.com/thumbr/474x313/a/5/23a4867afb37e2cf6e2c44cd34a31c080e3b6a0e085491e2b1fbfd09e65099/th.jpg?u=https%3A%2F%2Ftse.mm.bing.net%2Fth%3Fid%3DOIP.Ru3d0xcTCj-9ZRePD223awHaE5%26pid%3DApi&q=0&b=1&p=0&a=0"
  },
  {
    "name": "Trois Dents du Pelvoux",
    "ele": 3683,
    "coordinates": [
      6.4105396,
      44.8975582
    ],
    "photoUrl": "https://s2.qwant.com/thumbr/474x632/d/8/526103856249e390286492b9d488eb918ce33ceb81ed706a05a7bc32e2f223/th.jpg?u=https%3A%2F%2Ftse.mm.bing.net%2Fth%3Fid%3DOIP.oLkbOGCdmFirTxsXT4lqTgHaJ4%26pid%3DApi&q=0&b=1&p=0&a=0"
  },
  {
    "name": "Pointe Guyard",
    "ele": 3461,
    "coordinates": [
      6.3910455,
      44.8599163
    ],
    "photoUrl": ""
  },
  {
    "name": "Pointe de Celse Nière",
    "ele": 3429,
    "coordinates": [
      6.3951185,
      44.862841
    ],
    "photoUrl": "https://s1.qwant.com/thumbr/474x355/a/1/16a3586dee4d74efcbd5624ecbbacb7a39e598b6505528a8557e96a249f19f/th.jpg?u=https%3A%2F%2Ftse.mm.bing.net%2Fth%3Fid%3DOIP.y-KU_cK89J93mh1IGwcBuAHaFj%26pid%3DApi&q=0&b=1&p=0&a=0"
  },
  {
    "name": "Roche Paillon",
    "ele": 3636,
    "coordinates": [
      6.3799945,
      44.9523813
    ],
    "photoUrl": "https://s2.qwant.com/thumbr/474x355/f/4/9ed139a13f021e564e5bc1d80d48066ffffea3a4ebc758499b3b3d9f633ac3/th.jpg?u=https%3A%2F%2Ftse.mm.bing.net%2Fth%3Fid%3DOIP.fb7GbnmKloM60JY2wXuyCQHaFj%26pid%3DApi&q=0&b=1&p=0&a=0"
  },
  {
    "name": "Pic du Glacier Blanc",
    "ele": 3525,
    "coordinates": [
      6.392611,
      44.9544228
    ],
    "photoUrl": "https://s2.qwant.com/thumbr/474x317/4/e/a2e54b250288bc416dacfd79e43ce9d260a34f0038acee2aea77cc8dc372eb/th.jpg?u=https%3A%2F%2Ftse.mm.bing.net%2Fth%3Fid%3DOIP.zAB1G89oeo45DcVvoeciigHaE9%26pid%3DApi&q=0&b=1&p=0&a=0"
  },
  {
    "name": "Pic Lory",
    "ele": 4086,
    "coordinates": [
      6.3576641,
      44.9222662
    ],
    "photoUrl": ""
  },
  {
    "name": "Dômes de Miage (5ème dôme)",
    "ele": 3672,
    "coordinates": [
      6.8032859,
      45.8158975
    ],
    "photoUrl": "https://s1.qwant.com/thumbr/474x355/9/5/0bf8a473d43274643e30084a04e7ee09a93ad9773287762cf8307fcd3da96e/th.jpg?u=https%3A%2F%2Ftse.mm.bing.net%2Fth%3Fid%3DOIP.ClBBXPCv0kQ4_qULz-1_AwHaFj%26pid%3DApi&q=0&b=1&p=0&a=0"
  },
  {
    "name": "Dômes de Miage (2nd dôme)",
    "ele": 3633,
    "coordinates": [
      6.7939263,
      45.813531
    ],
    "photoUrl": "https://s1.qwant.com/thumbr/474x355/b/5/2564f080a6773a906247ccf3e6eae288159a43fe828b585d25dc2e2b9585b4/th.jpg?u=https%3A%2F%2Ftse.mm.bing.net%2Fth%3Fid%3DOIP.BAaLbWztEOx0LUxV0F40_AHaFj%26pid%3DApi&q=0&b=1&p=0&a=0"
  },
  {
    "name": "Dômes de Miage - Pointe Sud-Ouest",
    "ele": 3670,
    "coordinates": [
      6.7897905,
      45.8104261
    ],
    "photoUrl": "https://s2.qwant.com/thumbr/474x355/d/1/313832539704ca791af5819963fe07192cb74741510d03b4c3c33438445caa/th.jpg?u=https%3A%2F%2Ftse.mm.bing.net%2Fth%3Fid%3DOIP.RVKd5PR22sfx0irLbqIfxQHaFj%26pid%3DApi&q=0&b=1&p=0&a=0"
  },
  {
    "wikipediaUri": "it:Piton des Italiens",
    "name": "Piton des Italiens",
    "ele": 4002,
    "coordinates": [
      6.8304317,
      45.8372078
    ],
    "photoUrl": "https://s2.qwant.com/thumbr/474x355/c/f/5e1ad3deb25b8956bcc14c7f94b9f201257229bb37730dcca9aeb73c5ed2e8/th.jpg?u=https%3A%2F%2Ftse.mm.bing.net%2Fth%3Fid%3DOIP.HpCAyNDQPvhZhDqhjg8MMwHaFj%26pid%3DApi&q=0&b=1&p=0&a=0"
  },
  {
    "name": "Pointe de Méan-Martin",
    "ele": 3330,
    "coordinates": [
      6.9900608,
      45.3672244
    ],
    "photoUrl": "https://s2.qwant.com/thumbr/474x355/f/c/728902575716f1382e1a0e7d8ee2c87515a92449731f45f7cf1074bef745dc/th.jpg?u=https%3A%2F%2Ftse.mm.bing.net%2Fth%3Fid%3DOIP.E8mTFd8mvLbUdtrJXXaGAgAAAA%26pid%3DApi&q=0&b=1&p=0&a=0"
  },
  {
    "name": "Pic des Spijeoles",
    "ele": 3065,
    "coordinates": [
      0.4848204,
      42.7101212
    ],
    "photoUrl": ""
  },
  {
    "name": "Bosse de Sialouze",
    "ele": 3229,
    "coordinates": [
      6.3966174,
      44.8869174
    ],
    "photoUrl": "https://s1.qwant.com/thumbr/400x300/3/e/7d3274e6e41adc7c735aa33cb2f3830511787f2468b326975f63aeb8fe45c6/th.jpg?u=https%3A%2F%2Ftse.mm.bing.net%2Fth%3Fid%3DOIP.S3EMO3HHVACjMno4mwnqCAAAAA%26pid%3DApi&q=0&b=1&p=0&a=0"
  },
  {
    "wikipediaUri": "it:Pic d'Asti",
    "name": "Pic d'Asti",
    "ele": 3219,
    "coordinates": [
      7.0015598,
      44.6876608
    ],
    "photoUrl": "https://s1.qwant.com/thumbr/474x355/2/8/dae2099ffbf0babe92589c869598f3fb00abbc1cbe9c702f40730e817eeb0c/th.jpg?u=https%3A%2F%2Ftse.mm.bing.net%2Fth%3Fid%3DOIP.h5b2YjUWC1pgOaM1rg4r5wHaFj%26pid%3DApi&q=0&b=1&p=0&a=0"
  },
  {
    "wikipediaUri": "it:Monte Aiguillette",
    "name": "L'Asti / Monte Aiguillette",
    "ele": 3298,
    "coordinates": [
      7.0244772,
      44.6914519
    ],
    "photoUrl": "https://s1.qwant.com/thumbr/474x267/0/8/52fc68e580d801e6a20da7713c292a8a4aed9b02b5dd00e3f22746f967abf9/th.jpg?u=https%3A%2F%2Ftse.mm.bing.net%2Fth%3Fid%3DOIP.vdxmugqwhYHqk3iyEsMY6gHaEL%26pid%3DApi&q=0&b=1&p=0&a=0"
  },
  {
    "wikipediaUri": "fr:Cime de la Malédie",
    "name": "Cima Maledia / Cime de la Malédie",
    "ele": 3061,
    "coordinates": [
      7.3982143,
      44.1223794
    ],
    "photoUrl": "https://s1.qwant.com/thumbr/474x356/9/e/75b2b341e7751193eb660ddcce2c2a3aa5fd5e3c6dd14bd7710c2dc6e310d2/th.jpg?u=https%3A%2F%2Ftse.mm.bing.net%2Fth%3Fid%3DOIP.quj-P0urpfXxFdaVeKHVoAHaFk%26pid%3DApi&q=0&b=1&p=0&a=0"
  },
  {
    "wikipediaUri": "it:Monte Losetta",
    "name": "Monte Losetta / Pointe Joanne",
    "ele": 3054,
    "coordinates": [
      7.0632619,
      44.6803231
    ],
    "photoUrl": "https://s2.qwant.com/thumbr/474x355/6/6/7901c4a3d6bd404f22831f5e25f316b16c96925a701054cc46da8e76b7d4c5/th.jpg?u=https%3A%2F%2Ftse.mm.bing.net%2Fth%3Fid%3DOIP.23RoaCf38sHg1L4Jnf0y8AHaFj%26pid%3DApi&q=0&b=1&p=0&a=0"
  },
  {
    "wikipediaUri": "it:Monte Salza",
    "name": "Mont de Salsa / Monte Salza",
    "ele": 3326,
    "coordinates": [
      6.9623586,
      44.6195432
    ],
    "photoUrl": "https://s2.qwant.com/thumbr/474x316/6/3/cd47932f93af594118e377882ffb5b02aad28e4bb372e3c50f3ebe46596e98/th.jpg?u=https%3A%2F%2Ftse.mm.bing.net%2Fth%3Fid%3DOIP.h6Xkn7tK0cP9br1_hJy02wHaE8%26pid%3DApi&q=0&b=1&p=0&a=0"
  },
  {
    "name": "Punta Calabre",
    "ele": 3445,
    "coordinates": [
      7.0472761,
      45.4772089
    ],
    "photoUrl": "https://s1.qwant.com/thumbr/474x325/8/a/bf8de0d6d088a852f6560a4787e945a2229958b7428a58bc78fefc7bd22276/th.jpg?u=https%3A%2F%2Ftse.mm.bing.net%2Fth%3Fid%3DOIP.ZJDaF_1M0nKR7XY_wZ9r3wHaFF%26pid%3DApi&q=0&b=1&p=0&a=0"
  },
  {
    "wikipediaUri": "it:Aiguille de Toula",
    "name": "Aiguille de Toula",
    "ele": 3528,
    "coordinates": [
      6.9218302,
      45.8476722
    ],
    "photoUrl": "https://s2.qwant.com/thumbr/474x355/5/c/af7564ca02b28dc5c6f996de444fdd1e1f341f3a714528be515f0d765ac810/th.jpg?u=https%3A%2F%2Ftse.mm.bing.net%2Fth%3Fid%3DOIP.3uoOHFeQKQ6P7XTJyceRXwHaFj%26pid%3DApi&q=0&b=1&p=0&a=0"
  },
  {
    "wikipediaUri": "it:Tsanteleina",
    "name": "Tsanteleina",
    "ele": 3601,
    "coordinates": [
      7.0459805,
      45.4795237
    ],
    "photoUrl": ""
  },
  {
    "name": "Pointe du Montet",
    "ele": 3428,
    "coordinates": [
      7.070391,
      45.422394
    ],
    "photoUrl": "https://s2.qwant.com/thumbr/474x355/5/3/5d10df4931e890a59063b700d0f7af3df24f16928cd826223c65dbaa1a84c1/th.jpg?u=https%3A%2F%2Ftse.mm.bing.net%2Fth%3Fid%3DOIP.VzTrWob0ZfZqLCmjsio6rAHaFj%26pid%3DApi&q=0&b=1&p=0&a=0"
  },
  {
    "wikipediaUri": "it:Punta di Galisia",
    "name": "Pointe de la Galise / Punta di Galisia",
    "ele": 3346,
    "coordinates": [
      7.1044364,
      45.4669522
    ],
    "photoUrl": "https://s1.qwant.com/thumbr/474x316/0/6/314caf33b1c5b831a5a96e93e4cf9b47907e6309cb17974ba2cbbf933837a5/th.jpg?u=https%3A%2F%2Ftse.mm.bing.net%2Fth%3Fid%3DOIP.PLbul7bChdo1YzzOe2BubQHaE8%26pid%3DApi&q=0&b=1&p=0&a=0"
  },
  {
    "wikipediaUri": "an:Tuca de Malpás",
    "name": "Pic du Maupas",
    "ele": 3109,
    "coordinates": [
      0.5455762,
      42.7014229
    ],
    "photoUrl": "https://s1.qwant.com/thumbr/474x297/b/0/1a40e61c0b8326266c485ffffcbee5417f16009873c6b7dde77dff70ba21a7/th.jpg?u=https%3A%2F%2Ftse.mm.bing.net%2Fth%3Fid%3DOIP.Anni0xshsZZ9W73pGyR4ygHaEp%26pid%3DApi&q=0&b=1&p=0&a=0"
  },
  {
    "name": "Tuca Roya de Lliterola",
    "ele": 3122,
    "coordinates": [
      0.5208907,
      42.6976332
    ],
    "photoUrl": "https://s2.qwant.com/thumbr/474x260/c/6/3f55797df2f725dd943e609c87591a64f4fd046fd7ed34b86f4ba6757595e6/th.jpg?u=https%3A%2F%2Ftse.mm.bing.net%2Fth%3Fid%3DOIP.Yo7kRsDKDdieHhUj-3-gigHaEE%26pid%3DApi&q=0&b=1&p=0&a=0"
  },
  {
    "name": "Pic Gourdon",
    "ele": 3034,
    "coordinates": [
      0.4830237,
      42.7053053
    ],
    "photoUrl": ""
  },
  {
    "name": "Le Rochail",
    "ele": 3022,
    "coordinates": [
      6.0312809,
      44.9801121
    ],
    "photoUrl": ""
  },
  {
    "name": "Pic du Clapier du Peyron",
    "ele": 3169,
    "coordinates": [
      6.0752448,
      44.9361978
    ],
    "photoUrl": "https://s1.qwant.com/thumbr/474x317/a/4/dcae54ce1470bf0cfb16fb66fe4d3a17d884cee4ba7cf5e233e32c90e5890c/th.jpg?u=https%3A%2F%2Ftse.mm.bing.net%2Fth%3Fid%3DOIP.MkCrP7NMRLhOvpfHpw_KdAHaE9%26pid%3DApi&q=0&b=1&p=0&a=0"
  },
  {
    "name": "Pic des Crabioules",
    "ele": 3107,
    "coordinates": [
      0.52985,
      42.7026989
    ],
    "photoUrl": ""
  },
  {
    "wikipediaUri": "an:El Sellant de la Vaca",
    "name": "El Sellán de la Vaca",
    "ele": 3108,
    "coordinates": [
      0.496233,
      42.6923874
    ],
    "photoUrl": "https://s1.qwant.com/thumbr/474x632/b/d/7db4f81d56c7c06b22e9609f65fde80687f6d09d0a5c9153fa6494a1ff651b/th.jpg?u=https%3A%2F%2Ftse.mm.bing.net%2Fth%3Fid%3DOIP.DO6n2YeFZQQYibk5AkGpIwHaJ4%26pid%3DApi&q=0&b=1&p=0&a=0"
  },
  {
    "name": "Grand Quayrat",
    "ele": 3060,
    "coordinates": [
      0.5150965,
      42.7133834
    ],
    "photoUrl": ""
  },
  {
    "name": "Pic Lézat",
    "ele": 3101,
    "coordinates": [
      0.516697,
      42.7073572
    ],
    "photoUrl": ""
  },
  {
    "name": "Piton Carré",
    "ele": 3197,
    "coordinates": [
      -0.1449871,
      42.7734295
    ],
    "photoUrl": ""
  },
  {
    "name": "Pointe Chausenque",
    "ele": 3204,
    "coordinates": [
      -0.1422823,
      42.7734628
    ],
    "photoUrl": ""
  },
  {
    "wikipediaUri": "fr:Aiguille de Roc",
    "name": "Aiguille de Roc",
    "ele": 3409,
    "coordinates": [
      6.9209798,
      45.9019708
    ],
    "photoUrl": ""
  },
  {
    "wikipediaUri": "fr:Dent du Caïman",
    "name": "Dent du Caïman",
    "ele": 3554,
    "coordinates": [
      6.9088879,
      45.8942123
    ],
    "photoUrl": ""
  },
  {
    "wikipediaUri": "fr:Aiguille du Fou",
    "name": "Aiguille du Fou",
    "ele": 3501,
    "coordinates": [
      6.9114855,
      45.8981415
    ],
    "photoUrl": ""
  },
  {
    "name": "Aiguille des Ciseaux",
    "ele": 3479,
    "coordinates": [
      6.9121292,
      45.8984849
    ],
    "photoUrl": "https://s2.qwant.com/thumbr/474x474/f/9/90a17624b93607e786412a1c5c46b0b4df5beb78a812e330618e44695b502d/th.jpg?u=https%3A%2F%2Ftse.mm.bing.net%2Fth%3Fid%3DOIP.RVH48uZFhkBLJ6j68gEgSwHaHa%26pid%3DApi&q=0&b=1&p=0&a=0"
  },
  {
    "wikipediaUri": "en:Aiguille du Grépon",
    "name": "Aiguille du Grépon",
    "ele": 3482,
    "coordinates": [
      6.9190588,
      45.9028436
    ],
    "photoUrl": ""
  },
  {
    "wikipediaUri": "fr:Aiguille de la République",
    "name": "Aiguille de la République",
    "ele": 3305,
    "coordinates": [
      6.9212635,
      45.9056685
    ],
    "photoUrl": ""
  },
  {
    "name": "Pointe Lépiney",
    "ele": 3429,
    "coordinates": [
      6.9114628,
      45.895855
    ],
    "photoUrl": "https://s1.qwant.com/thumbr/474x237/3/0/f964f98538f38665a406d152f0b43c6bf5b57ee956c870ddc0bfce26b2e5b7/th.jpg?u=https%3A%2F%2Ftse.mm.bing.net%2Fth%3Fid%3DOIP.pOWbcEPt68yZqscbNWI4MwHaDt%26pid%3DApi&q=0&b=1&p=0&a=0"
  },
  {
    "wikipediaUri": "fr:Dent du Crocodile",
    "name": "Dent du Crocodile",
    "ele": 3640,
    "coordinates": [
      6.9075827,
      45.8926054
    ],
    "photoUrl": ""
  },
  {
    "name": "Bec d'Oiseau",
    "ele": 3417,
    "coordinates": [
      6.9188126,
      45.9011346
    ],
    "photoUrl": "https://s2.qwant.com/thumbr/474x379/e/9/2e9062a621eb320906fb493c1f97621c34ae265be72e12873936959f9054d7/th.jpg?u=https%3A%2F%2Ftse.mm.bing.net%2Fth%3Fid%3DOIP.hozEBUxbkN8ZXmB0to_O2QHaF7%26pid%3DApi&q=0&b=1&p=0&a=0"
  },
  {
    "name": "Punta de l'Ibón Gran Norte",
    "ele": 3096,
    "coordinates": [
      0.3950628,
      42.7033866
    ],
    "photoUrl": "https://s2.qwant.com/thumbr/474x355/5/7/ca150d005fc02261a0f51af0234c71965b033b6ee85e8f3c7ac3c4a94d8b81/th.jpg?u=https%3A%2F%2Ftse4.explicit.bing.net%2Fth%3Fid%3DOIP.JkTSq1rmYXxRKlgyJKiaUQHaFj%26pid%3DApi&q=0&b=1&p=0&a=0"
  },
  {
    "name": "Pic de Serre de Mourène",
    "ele": 3090,
    "coordinates": [
      0.1353078,
      42.7207426
    ],
    "photoUrl": "https://s2.qwant.com/thumbr/474x230/d/d/d99d6af03d268ce864ed6e5f168e85002d93fde98813b02c30dfe0d24d005f/th.jpg?u=https%3A%2F%2Ftse.mm.bing.net%2Fth%3Fid%3DOIP.BZ8eGu6oJchVcSuibyxmXQHaDm%26pid%3DApi&q=0&b=1&p=0&a=0"
  },
  {
    "name": "Tuca del Pas Alt de Lliterola",
    "ele": 3097,
    "coordinates": [
      0.5211923,
      42.695402
    ],
    "photoUrl": "https://s2.qwant.com/thumbr/474x260/c/6/3f55797df2f725dd943e609c87591a64f4fd046fd7ed34b86f4ba6757595e6/th.jpg?u=https%3A%2F%2Ftse.mm.bing.net%2Fth%3Fid%3DOIP.Yo7kRsDKDdieHhUj-3-gigHaEE%26pid%3DApi&q=0&b=1&p=0&a=0"
  },
  {
    "name": "Petit Astazou",
    "ele": 3015,
    "coordinates": [
      0.014493,
      42.7018762
    ],
    "photoUrl": ""
  },
  {
    "name": "Bachimala Chicot N",
    "ele": 3048,
    "coordinates": [
      0.3933877,
      42.7075447
    ],
    "photoUrl": "https://s2.qwant.com/thumbr/474x355/c/e/ea50b912cf50374ce99a0ea538571ea0c1ea3200b5948908fc7d28176f95ff/th.jpg?u=https%3A%2F%2Ftse.mm.bing.net%2Fth%3Fid%3DOIP.79iBp4hGT-EEsr1dz47RuwHaFj%26pid%3DApi&q=0&b=1&p=0&a=0"
  },
  {
    "name": "Punda dera Ula",
    "ele": 3098,
    "coordinates": [
      0.0024152,
      42.6866993
    ],
    "photoUrl": "https://s2.qwant.com/thumbr/474x331/e/3/64afc3d2a0931ba240140fd21279603eff7822e67642e2e6c07f84789606eb/th.jpg?u=https%3A%2F%2Ftse.mm.bing.net%2Fth%3Fid%3DOIP.YtN2qmc1BDFXZ9UtrV1t_QHaFL%26pid%3DApi&q=0&b=1&p=0&a=0"
  },
  {
    "name": "Pointe de la Sana",
    "ele": 3435,
    "coordinates": [
      6.9174454,
      45.3850652
    ],
    "photoUrl": ""
  },
  {
    "name": "Bec de Grenier",
    "ele": 3298,
    "coordinates": [
      6.3149713,
      45.1075312
    ],
    "photoUrl": "https://s1.qwant.com/thumbr/474x316/0/1/8aa08419cc7d733814a35e0352988d339b0084b83be8599ba0be56222816ec/th.jpg?u=https%3A%2F%2Ftse.mm.bing.net%2Fth%3Fid%3DOIP.vWdWeUmw_2BNHis077H_FQHaE8%26pid%3DApi&q=0&b=1&p=0&a=0"
  },
  {
    "name": "Pic des Trois Évêchés",
    "ele": 3116,
    "coordinates": [
      6.3649601,
      45.070009
    ],
    "photoUrl": "https://s1.qwant.com/thumbr/474x474/2/8/ea481c4ead5b4d506822eb9d82c005d8c61b6002474070a8835dfc9a4d6b38/th.jpg?u=https%3A%2F%2Ftse.mm.bing.net%2Fth%3Fid%3DOIP.GyDUn_SoLsDLf88xnkUaUgHaHa%26pid%3DApi&q=0&b=1&p=0&a=0"
  },
  {
    "name": "Aiguille des Saffres",
    "ele": 3135,
    "coordinates": [
      6.2466297,
      44.8519289
    ],
    "photoUrl": "https://s1.qwant.com/thumbr/474x266/b/0/fb1845c636fb1e41e44c7f3e0a556402dfeb1ca96fcc32dd595d58fbbcd918/th.jpg?u=https%3A%2F%2Ftse.mm.bing.net%2Fth%3Fid%3DOIP.wxE_ZBHMplJbjP-8C7qsNAHaEK%26pid%3DApi&q=0&b=1&p=0&a=0"
  },
  {
    "name": "Tête de Malacombe",
    "ele": 3124,
    "coordinates": [
      6.2393331,
      44.9147659
    ],
    "photoUrl": "https://s2.qwant.com/thumbr/474x316/e/8/3901de8e0eb8c8d2cac50d4a7e954748da2aa87affae52daed249bc3d04afe/th.jpg?u=https%3A%2F%2Ftse.mm.bing.net%2Fth%3Fid%3DOIP.RvG6MqFgBH1UWLe1lwgEtQHaE8%26pid%3DApi&q=0&b=1&p=0&a=0"
  },
  {
    "name": "Pointe Lemercier",
    "ele": 3170,
    "coordinates": [
      6.234976,
      44.9123513
    ],
    "photoUrl": "https://s1.qwant.com/thumbr/474x316/1/3/6b60b01b13932997cd2fb4e132a1a8a999d8eb7a65c5f20c0126b1d06f8c08/th.jpg?u=https%3A%2F%2Ftse.mm.bing.net%2Fth%3Fid%3DOIP.nxkb0hP3Asartfu1bkUT7wHaE8%26pid%3DApi&q=0&b=1&p=0&a=0"
  },
  {
    "name": "Pointe Trifide",
    "ele": 3450,
    "coordinates": [
      6.2726772,
      45.0057743
    ],
    "photoUrl": "https://s2.qwant.com/thumbr/474x247/4/2/cb9e51806d31421abc8e9a53eb306470f49109fff1c511e9e39c067baae81a/th.jpg?u=https%3A%2F%2Ftse.mm.bing.net%2Fth%3Fid%3DOIP.Vpx6jVZIdyHxYOOr51hkMQHaD3%26pid%3DApi&q=0&b=1&p=0&a=0"
  },
  {
    "name": "Pointe Marie-Louise",
    "ele": 3545,
    "coordinates": [
      6.257616,
      44.9969454
    ],
    "photoUrl": "https://s1.qwant.com/thumbr/474x349/b/f/398d947ee3376a51a8cff80a2175f53b90efc4c85d9ac4ee7aff2f19888c7c/th.jpg?u=https%3A%2F%2Ftse.mm.bing.net%2Fth%3Fid%3DOIP.v3fPPrg6uGaj7tWW0sZ9twHaFd%26pid%3DApi&q=0&b=1&p=0&a=0"
  },
  {
    "name": "Pointe Madeleine",
    "ele": 3627,
    "coordinates": [
      6.2631201,
      44.9971209
    ],
    "photoUrl": ""
  },
  {
    "name": "Pointe Claire",
    "ele": 3368,
    "coordinates": [
      6.3450979,
      44.9934546
    ],
    "photoUrl": "https://s2.qwant.com/thumbr/474x162/7/2/6954be0ead3500ddd6369d31a1d799e3716f54989228f84017cab85b84c352/th.jpg?u=https%3A%2F%2Ftse.mm.bing.net%2Fth%3Fid%3DOIP.Q76hBFWFR6S18lxy46b_1gHaCi%26pid%3DApi&q=0&b=1&p=0&a=0"
  },
  {
    "name": "Pointe des Pichettes",
    "ele": 3534,
    "coordinates": [
      6.3487028,
      45.0000248
    ],
    "photoUrl": "https://s2.qwant.com/thumbr/474x355/d/f/28132266b204e4f90714f7de4f623d62925c8a74d6d859ce17fed28b1d42cc/th.jpg?u=https%3A%2F%2Ftse.mm.bing.net%2Fth%3Fid%3DOIP.993O96x_XTMG6rgRqJqJSQHaFj%26pid%3DApi&q=0&b=1&p=0&a=0"
  },
  {
    "name": "Pointe Gravelotte",
    "ele": 3387,
    "coordinates": [
      6.3573931,
      44.9969591
    ],
    "photoUrl": "https://s2.qwant.com/thumbr/474x355/c/f/78efbb9e023beb61be381b0387d417df4e9b32795af5c9f2f497598ef54197/th.jpg?u=https%3A%2F%2Ftse.mm.bing.net%2Fth%3Fid%3DOIP.kELYKrGVRFSr_aUhYtTmnQHaFj%26pid%3DApi&q=0&b=1&p=0&a=0"
  },
  {
    "name": "Pointe Piaget",
    "ele": 3569,
    "coordinates": [
      6.3453339,
      44.9987048
    ],
    "photoUrl": "https://s1.qwant.com/thumbr/474x316/3/1/3bfdedc32f445cf3e410d55b98fde91c102bb52b78338d0529d03baf8887e0/th.jpg?u=https%3A%2F%2Ftse.mm.bing.net%2Fth%3Fid%3DOIP.JEA176so-JfnQY9bO4Gk7gHaE8%26pid%3DApi&q=0&b=1&p=0&a=0"
  },
  {
    "name": "Tête des Corridors",
    "ele": 3734,
    "coordinates": [
      6.3173739,
      45.0067166
    ],
    "photoUrl": "https://s2.qwant.com/thumbr/474x309/6/c/18d0f898a21027120b0be92549f829f7289ed4f98631d10ae25ecead969e3d/th.jpg?u=https%3A%2F%2Ftse.mm.bing.net%2Fth%3Fid%3DOIP.XCa-ABXQnWcXtxskhJ3AdQHaE1%26pid%3DApi&q=0&b=1&p=0&a=0"
  },
  {
    "name": "Bec de l'Aigle",
    "ele": 3411,
    "coordinates": [
      6.3266973,
      45.014021
    ],
    "photoUrl": ""
  },
  {
    "name": "Pointe Nord de la Selle",
    "ele": 3295,
    "coordinates": [
      6.2764096,
      44.9812557
    ],
    "photoUrl": "https://s1.qwant.com/thumbr/474x355/0/d/d0580f5ef878d527c21fe07a4a874bb53d713dc25886d606e031b997d470b3/th.jpg?u=https%3A%2F%2Ftse.mm.bing.net%2Fth%3Fid%3DOIP.leEtkSsYPnIUnxwe6zDeXQEsDh%26pid%3DApi&q=0&b=1&p=0&a=0"
  },
  {
    "name": "Aiguille de la Gandolière",
    "ele": 3324,
    "coordinates": [
      6.2782549,
      44.9714804
    ],
    "photoUrl": "https://s1.qwant.com/thumbr/474x632/3/f/5a79e65920dd0bd419f01a125c042420633f5ef3b8e276f561771b1a5a6a6d/th.jpg?u=https%3A%2F%2Ftse.mm.bing.net%2Fth%3Fid%3DOIP.Dbix9R7Irirm3UytpVPfHgHaJ4%26pid%3DApi&q=0&b=1&p=0&a=0"
  },
  {
    "name": "Pic Nord des Cavales",
    "ele": 3362,
    "coordinates": [
      6.3151846,
      44.9804794
    ],
    "photoUrl": "https://s1.qwant.com/thumbr/474x316/a/7/041c9f1af7a2563d78d5e3ebb3a263c72e21e12417bc60c1ed037b00d28c17/th.jpg?u=https%3A%2F%2Ftse.mm.bing.net%2Fth%3Fid%3DOIP.5t9cFFg_u6n4pjir7885OgHaE8%26pid%3DApi&q=0&b=1&p=0&a=0"
  },
  {
    "name": "Pointe Castelnau",
    "ele": 3458,
    "coordinates": [
      6.3192871,
      44.9940349
    ],
    "photoUrl": "https://s2.qwant.com/thumbr/400x267/7/0/6fddfa2cc60e2fc26abca0215f5b4284ef8c88c9c927ed5b6f2d2bc54e041d/th.jpg?u=https%3A%2F%2Ftse.mm.bing.net%2Fth%3Fid%3DOIP.zGl-jmaJrSBs0fM0BkSUHQAAAA%26pid%3DApi&q=0&b=1&p=0&a=0"
  },
  {
    "name": "Corne des Chamois",
    "ele": 3305,
    "coordinates": [
      6.3165279,
      44.9870295
    ],
    "photoUrl": "https://s2.qwant.com/thumbr/474x711/f/7/039e2bb0d43b6918536e0de40aeb96c962fa8a0c91ff8613175049623b2a89/th.jpg?u=https%3A%2F%2Ftse1.explicit.bing.net%2Fth%3Fid%3DOIP.fS9qdELu8QtGoqZrM3LfYAHaLH%26pid%3DApi&q=0&b=1&p=0&a=0"
  },
  {
    "name": "L'Ourson",
    "ele": 3735,
    "coordinates": [
      6.3265792,
      44.9988343
    ],
    "photoUrl": "https://s1.qwant.com/thumbr/474x315/8/5/07a4d9b1a3ec2500ef7cdcdcef07841f9a4893eef00e7415351e9d828d1c6f/th.jpg?u=https%3A%2F%2Ftse.mm.bing.net%2Fth%3Fid%3DOIP.e_9EGE4VOFG_Yn_SxYNfnwHaE7%26pid%3DApi&q=0&b=1&p=0&a=0"
  },
  {
    "name": "Pointe Chalonge",
    "ele": 3344,
    "coordinates": [
      6.3211284,
      44.9751221
    ],
    "photoUrl": "https://s1.qwant.com/thumbr/474x316/3/6/120160bbd528a0735de029086f0600a61a92f8b09d578fc0f67a61d335e263/th.jpg?u=https%3A%2F%2Ftse.mm.bing.net%2Fth%3Fid%3DOIP.sSAE66mIeGy4FKCcINEn1QHaE8%26pid%3DApi&q=0&b=1&p=0&a=0"
  },
  {
    "name": "Pic Sud des Cavales",
    "ele": 3360,
    "coordinates": [
      6.3223944,
      44.9746211
    ],
    "photoUrl": "https://s2.qwant.com/thumbr/474x316/d/b/6b0e27aa47466d8fe72f0b6db4f4b5982d7e649d0032d101fefc9de81d9872/th.jpg?u=https%3A%2F%2Ftse.mm.bing.net%2Fth%3Fid%3DOIP.wVz4a9zFtJqyWokN0qTbnQHaE8%26pid%3DApi&q=0&b=1&p=0&a=0"
  },
  {
    "name": "Clochers de l'Alpe",
    "ele": 3504,
    "coordinates": [
      6.3439605,
      44.9722827
    ],
    "photoUrl": "https://s2.qwant.com/thumbr/474x355/4/1/4d7f977dea522b60167549352bad02eb67f00ac11146b312ce5a4e68463afc/th.jpg?u=https%3A%2F%2Ftse.mm.bing.net%2Fth%3Fid%3DOIP.Ok6WocgRsG6AHH7iynbgAAHaFj%26pid%3DApi&q=0&b=1&p=0&a=0"
  },
  {
    "name": "Pic Maître",
    "ele": 3728,
    "coordinates": [
      6.32969,
      44.9692473
    ],
    "photoUrl": "https://s1.qwant.com/thumbr/474x301/a/2/2009e6b31065d536da329ec022a7244e0273d4b0b1ec3e3d066ec9162303ba/th.jpg?u=https%3A%2F%2Ftse.mm.bing.net%2Fth%3Fid%3DOIP.aIRwkanD4gzW_kIN0L2g4AHaEt%26pid%3DApi&q=0&b=1&p=0&a=0"
  },
  {
    "name": "Les Clochetons",
    "ele": 3263,
    "coordinates": [
      6.3493463,
      44.9755
    ],
    "photoUrl": "https://s1.qwant.com/thumbr/474x312/a/a/497400e61a812cc5d871851cae083beadcd13c1c1e856e47493f9dcca1ec86/th.jpg?u=https%3A%2F%2Ftse.mm.bing.net%2Fth%3Fid%3DOIP.bLueibSKSaG8Zs82y5VsYQHaE4%26pid%3DApi&q=0&b=1&p=0&a=0"
  },
  {
    "name": "Tête Sud de la Somme",
    "ele": 3389,
    "coordinates": [
      6.330131,
      44.9470657
    ],
    "photoUrl": "https://s2.qwant.com/thumbr/474x316/4/9/e65e09a496525593799497c8118677f391426a8c76a59213c2bedc7a0c7c29/th.jpg?u=https%3A%2F%2Ftse.mm.bing.net%2Fth%3Fid%3DOIP.sM4RhoMfN_8ogvAbKJQ4uQHaE8%26pid%3DApi&q=0&b=1&p=0&a=0"
  },
  {
    "name": "Sommet Nord-Ouest de la Roche d'Alvau",
    "ele": 3538,
    "coordinates": [
      6.3381235,
      44.9475029
    ],
    "photoUrl": "https://s2.qwant.com/thumbr/474x354/d/4/1b6682048ad745e0f37164fa146fa8f3071a7296ef1ce1b1ab663066134040/th.jpg?u=https%3A%2F%2Ftse.mm.bing.net%2Fth%3Fid%3DOIP.3LnZWdD1n3CbZ9E6QZ-q1QHaFi%26pid%3DApi&q=0&b=1&p=0&a=0"
  },
  {
    "name": "Pointe Xavier Blanc",
    "ele": 3677,
    "coordinates": [
      6.3620917,
      44.9427196
    ],
    "photoUrl": "https://s1.qwant.com/thumbr/474x355/1/7/34d2dda0ce0dd29a6fea8735ced3b7b81bc31825d2fb2aa166cbc8f12c5704/th.jpg?u=https%3A%2F%2Ftse.mm.bing.net%2Fth%3Fid%3DOIP.dyQIsK-PFrmZB4m8U4KUfwHaFj%26pid%3DApi&q=0&b=1&p=0&a=0"
  },
  {
    "name": "Jumeaux des Écrins",
    "ele": 3730,
    "coordinates": [
      6.3540244,
      44.9276123
    ],
    "photoUrl": "https://s2.qwant.com/thumbr/474x178/d/a/c133a43d4da84fa57fcb83007ec01780dc6d67709e8a4dae5dffaa7f4a2cfc/th.jpg?u=https%3A%2F%2Ftse.mm.bing.net%2Fth%3Fid%3DOIP.w1kNx0F11T8Zwjfkeb17sgHaCy%26pid%3DApi&q=0&b=1&p=0&a=0"
  },
  {
    "name": "Clocher des Écrins",
    "ele": 3808,
    "coordinates": [
      6.3489596,
      44.9233964
    ],
    "photoUrl": "https://s1.qwant.com/thumbr/474x316/a/4/c5dc98a6dd43d7c827d9c4a1d2f677778dcc2ac05d3a7932a0649afdea7c49/th.jpg?u=https%3A%2F%2Ftse.mm.bing.net%2Fth%3Fid%3DOIP.q8843xcr7y_6tqHfX681zQHaE8%26pid%3DApi&q=0&b=1&p=0&a=0"
  },
  {
    "name": "Flambeau des Écrins",
    "ele": 3551,
    "coordinates": [
      6.339468,
      44.9220404
    ],
    "photoUrl": "https://s2.qwant.com/thumbr/474x316/6/8/6052db894555b83f46c786b44221bba37e02b0b8dee74ec52931551164ecaf/th.jpg?u=https%3A%2F%2Ftse.mm.bing.net%2Fth%3Fid%3DOIP.HSbTYaMtEGSSSt2-w5_vnAHaE8%26pid%3DApi&q=0&b=1&p=0&a=0"
  },
  {
    "name": "Tour de Bonne Pierre",
    "ele": 3692,
    "coordinates": [
      6.3556973,
      44.9287495
    ],
    "photoUrl": "https://s2.qwant.com/thumbr/474x333/7/d/e14a14e4c59163b179343e06f3b1a105daf2a936e731e809301f0fb153c182/th.jpg?u=https%3A%2F%2Ftse.mm.bing.net%2Fth%3Fid%3DOIP.7ArYntkQ6_aSMaQPrFs7IgHaFN%26pid%3DApi&q=0&b=1&p=0&a=0"
  },
  {
    "name": "Pointe de Bonne Pierre",
    "ele": 3683,
    "coordinates": [
      6.3555181,
      44.9297764
    ],
    "photoUrl": "https://s2.qwant.com/thumbr/474x355/c/4/7f33bdafd7ef106641d8f045f11ba5d5adbabbf956b9582cb404b81cbdca5a/th.jpg?u=https%3A%2F%2Ftse.mm.bing.net%2Fth%3Fid%3DOIP.DhntV3Lzue-X3BpxEIYvugEsDh%26pid%3DApi&q=0&b=1&p=0&a=0"
  },
  {
    "name": "Cornes de Pié Bérarde",
    "ele": 3012,
    "coordinates": [
      6.319583,
      44.9299899
    ],
    "photoUrl": "https://s2.qwant.com/thumbr/474x355/7/b/95a492f4ee2b463270258c4aa29f841fac910ca3bd4b2c7f7ac7b2c4b0287e/th.jpg?u=https%3A%2F%2Ftse.mm.bing.net%2Fth%3Fid%3DOIP.Nv7DaW6f6k0u8ApjAd6B4wHaFj%26pid%3DApi&q=0&b=1&p=0&a=0"
  },
  {
    "name": "Pointe d'entre les Cols",
    "ele": 3407,
    "coordinates": [
      6.2437515,
      44.8934285
    ],
    "photoUrl": "https://s2.qwant.com/thumbr/474x316/f/5/8c8eb81693d8f9392c481ea18456a872e501a8fd9f040808ecdff45f21b81e/th.jpg?u=https%3A%2F%2Ftse.mm.bing.net%2Fth%3Fid%3DOIP.N-Fzi3mpIQjvwJr03PGS6gHaE8%26pid%3DApi&q=0&b=1&p=0&a=0"
  },
  {
    "name": "Aiguillette de l'Étret",
    "ele": 3281,
    "coordinates": [
      6.2453394,
      44.8940814
    ],
    "photoUrl": "https://s1.qwant.com/thumbr/474x191/9/5/40f98f0c5fc0760a317c28b45056ff055eeed6d3cccc5e4f8eda66c8beb2b1/th.jpg?u=https%3A%2F%2Ftse.mm.bing.net%2Fth%3Fid%3DOIP.-by3fUcsYKPG-rpcngI6BAHaC_%26pid%3DApi&q=0&b=1&p=0&a=0"
  },
  {
    "name": "Pic Central de Vaccivier",
    "ele": 3312,
    "coordinates": [
      6.2829762,
      44.8706224
    ],
    "photoUrl": "https://s1.qwant.com/thumbr/474x355/9/1/dcc3af49af568be77e22b950e90c81aa41ced76d3a35e7f049616a07be0035/th.jpg?u=https%3A%2F%2Ftse.mm.bing.net%2Fth%3Fid%3DOIP.RKmTShsvnWZRJ1uQVjaWNQHaFj%26pid%3DApi&q=0&b=1&p=0&a=0"
  },
  {
    "name": "Pic Est de Vaccivier",
    "ele": 3266,
    "coordinates": [
      6.2950075,
      44.8741063
    ],
    "photoUrl": "https://s1.qwant.com/thumbr/474x316/3/9/22832f1df40c9482c3d4fe0350b481a2b8a65e8e3c46455318002b41600aad/th.jpg?u=https%3A%2F%2Ftse.mm.bing.net%2Fth%3Fid%3DOIP.781UugoLGLzAVRN-F_CdAAHaE8%26pid%3DApi&q=0&b=1&p=0&a=0"
  },
  {
    "name": "Tours de Boverjat",
    "ele": 3064,
    "coordinates": [
      6.3137465,
      44.8822387
    ],
    "photoUrl": "https://s1.qwant.com/thumbr/474x474/a/8/06f4a21e183e4b7fd530093177b0bc50772c3ee4724624c8a736d760adc612/th.jpg?u=https%3A%2F%2Ftse.mm.bing.net%2Fth%3Fid%3DOIP.tWA2i05MnQA9nlUVy2pT4QHaHa%26pid%3DApi&q=0&b=1&p=0&a=0"
  },
  {
    "name": "Cime de l'Encoula",
    "ele": 3536,
    "coordinates": [
      6.2826994,
      44.9051314
    ],
    "photoUrl": ""
  },
  {
    "name": "Épaule Nord Ouest des Bans",
    "ele": 3475,
    "coordinates": [
      6.3288097,
      44.8516713
    ],
    "photoUrl": "https://s2.qwant.com/thumbr/474x266/e/0/77f092ba4e86791438f1d34a2b8553e560b9d66e323cbccb07f3cf7dcb88a8/th.jpg?u=https%3A%2F%2Ftse.mm.bing.net%2Fth%3Fid%3DOIP.-tfVFck76zHtil_5PVa4zQHaEK%26pid%3DApi&q=0&b=1&p=0&a=0"
  },
  {
    "name": "Sommet Nord Ouest des Bans",
    "ele": 3630,
    "coordinates": [
      6.3316422,
      44.8503927
    ],
    "photoUrl": "https://s2.qwant.com/thumbr/474x266/e/0/77f092ba4e86791438f1d34a2b8553e560b9d66e323cbccb07f3cf7dcb88a8/th.jpg?u=https%3A%2F%2Ftse.mm.bing.net%2Fth%3Fid%3DOIP.-tfVFck76zHtil_5PVa4zQHaEK%26pid%3DApi&q=0&b=1&p=0&a=0"
  },
  {
    "name": "Pointe de Conte Faviel",
    "ele": 3238,
    "coordinates": [
      6.3242822,
      44.8523862
    ],
    "photoUrl": "https://s2.qwant.com/thumbr/474x315/c/f/80b18a50791f68fba4025f9a91795e412d0487e36f8ed4ee62d6c9c724fa67/th.jpg?u=https%3A%2F%2Ftse.mm.bing.net%2Fth%3Fid%3DOIP.d_i_KrtVpU2FkGhaL0tSLgHaE7%26pid%3DApi&q=0&b=1&p=0&a=0"
  },
  {
    "name": "Sommet Nord des Bans",
    "ele": 3662,
    "coordinates": [
      6.3351623,
      44.8497849
    ],
    "photoUrl": "https://s2.qwant.com/thumbr/474x266/e/0/77f092ba4e86791438f1d34a2b8553e560b9d66e323cbccb07f3cf7dcb88a8/th.jpg?u=https%3A%2F%2Ftse.mm.bing.net%2Fth%3Fid%3DOIP.-tfVFck76zHtil_5PVa4zQHaEK%26pid%3DApi&q=0&b=1&p=0&a=0"
  },
  {
    "name": "Pointe Est de la Condamine",
    "ele": 3443,
    "coordinates": [
      6.3521782,
      44.8529331
    ],
    "photoUrl": "https://s2.qwant.com/thumbr/474x248/c/b/0cfe83765ea235b0c078a48bd219da1910ec493b904c9fa57a27cdcfa9ad1f/th.jpg?u=https%3A%2F%2Ftse.mm.bing.net%2Fth%3Fid%3DOIP.0IeIBbApUw0cAZAgGlNmNwHaD4%26pid%3DApi&q=0&b=1&p=0&a=0"
  },
  {
    "name": "Têtes de la Pilatte",
    "ele": 3421,
    "coordinates": [
      6.3403121,
      44.84872
    ],
    "photoUrl": "https://s1.qwant.com/thumbr/474x316/a/4/1817c6bb026c4c502dd241a1161fbd934e171288e9ae0ecaa19dd35a48d46c/th.jpg?u=https%3A%2F%2Ftse.mm.bing.net%2Fth%3Fid%3DOIP.h0Wu_jFpog8ZrDmwcHv1qwHaE8%26pid%3DApi&q=0&b=1&p=0&a=0"
  },